{
"type": "FeatureCollection",
"name": "caba_bares_cafes",
"crs": { "type": "name", "properties": { "name": "urn:ogc:def:crs:OGC:1.3:CRS84" } },
"features": [
{ "type": "Feature", "properties": { "place_id": "b3ccad19706812996249ccced4462d02c529d843", "name": "Oasis Bar", "rating": null, "tipo_1": "bar", "tipo_2": "point_of_interest", "tipo_3": "establishment", "categoria": "gastronomia", "cluster": 0 }, "geometry": { "type": "Point", "coordinates": [ -58.3931411, -34.5978842 ] } },
{ "type": "Feature", "properties": { "place_id": "a9f93eb87eadf46494d2a198d368aebd9063ac98", "name": "Bar Pepe", "rating": null, "tipo_1": "bar", "tipo_2": "point_of_interest", "tipo_3": "establishment", "categoria": "gastronomia", "cluster": 0 }, "geometry": { "type": "Point", "coordinates": [ -58.3881323, -34.5957424 ] } },
{ "type": "Feature", "properties": { "place_id": "434f9aa66ce4c9365a3fd02e66ca2fad56aaca09", "name": "Boliche", "rating": null, "tipo_1": "bar", "tipo_2": "point_of_interest", "tipo_3": "establishment", "categoria": "gastronomia", "cluster": 0 }, "geometry": { "type": "Point", "coordinates": [ -58.4262639, -34.5965116 ] } },
{ "type": "Feature", "properties": { "place_id": "d94abed552022aeb57da8665e940c30dc74a59a2", "name": "The Five SRL", "rating": null, "tipo_1": "bar", "tipo_2": "point_of_interest", "tipo_3": "establishment", "categoria": "gastronomia", "cluster": 1 }, "geometry": { "type": "Point", "coordinates": [ -58.4303497, -34.5889073 ] } },
{ "type": "Feature", "properties": { "place_id": "cd4239790d9d4e54457f511bce3611dfef41dbcf", "name": "Yauss Club", "rating": 4.2, "tipo_1": "bar", "tipo_2": "art_gallery", "tipo_3": "restaurant", "categoria": "gastronomia", "cluster": 3 }, "geometry": { "type": "Point", "coordinates": [ -58.37315, -34.61843 ] } },
{ "type": "Feature", "properties": { "place_id": "2eab9c412f027857501547cb6a7ae8c261b72bb6", "name": "AntiDomingo", "rating": 4.3, "tipo_1": "bar", "tipo_2": "art_gallery", "tipo_3": "point_of_interest", "categoria": "gastronomia", "cluster": 0 }, "geometry": { "type": "Point", "coordinates": [ -58.4827283, -34.5429658 ] } },
{ "type": "Feature", "properties": { "place_id": "ce2345f7dcc59abbb5900007f09bdc4c535f6744", "name": "POST St. BAR", "rating": 4.3, "tipo_1": "bar", "tipo_2": "art_gallery", "tipo_3": "point_of_interest", "categoria": "gastronomia", "cluster": 0 }, "geometry": { "type": "Point", "coordinates": [ -58.4281915, -34.5861307 ] } },
{ "type": "Feature", "properties": { "place_id": "7d266398f4a31390b3bda87ea5640133997e367f", "name": "Dos Escudos", "rating": 4.3, "tipo_1": "cafe", "tipo_2": "bakery", "tipo_3": "bar", "categoria": "gastronomia", "cluster": 0 }, "geometry": { "type": "Point", "coordinates": [ -58.387097, -34.590676 ] } },
{ "type": "Feature", "properties": { "place_id": "2845a70ac0371546119850a01c9f687d7123247a", "name": "Boulevard Patricios", "rating": 3.4, "tipo_1": "cafe", "tipo_2": "bakery", "tipo_3": "food", "categoria": "gastronomia", "cluster": 0 }, "geometry": { "type": "Point", "coordinates": [ -58.370229, -34.631464 ] } },
{ "type": "Feature", "properties": { "place_id": "c661c31727fca9c5690f424cdc53cc2b8822e310", "name": "Bonafide", "rating": 3.8, "tipo_1": "cafe", "tipo_2": "bakery", "tipo_3": "food", "categoria": "gastronomia", "cluster": 0 }, "geometry": { "type": "Point", "coordinates": [ -58.439492, -34.619819 ] } },
{ "type": "Feature", "properties": { "place_id": "213ef9b83a165a4572c193670610f64f7f6516a1", "name": "La Palma de Flores", "rating": 3.9, "tipo_1": "cafe", "tipo_2": "bakery", "tipo_3": "food", "categoria": "gastronomia", "cluster": 0 }, "geometry": { "type": "Point", "coordinates": [ -58.4634389, -34.63057 ] } },
{ "type": "Feature", "properties": { "place_id": "4a085af1ed677a8b2f2b94d0a32cda586e84cf35", "name": "Rincón de Flores", "rating": 4.5, "tipo_1": "bar", "tipo_2": "bakery", "tipo_3": "food", "categoria": "gastronomia", "cluster": 0 }, "geometry": { "type": "Point", "coordinates": [ -58.463023, -34.631515 ] } },
{ "type": "Feature", "properties": { "place_id": "925e1279f36ff431ec9f763c4bbe7302bab23080", "name": "Nucha", "rating": 3.5, "tipo_1": "cafe", "tipo_2": "bakery", "tipo_3": "food", "categoria": "gastronomia", "cluster": 0 }, "geometry": { "type": "Point", "coordinates": [ -58.409726, -34.581269 ] } },
{ "type": "Feature", "properties": { "place_id": "6502ede3ca46587ed76473b164cd76792c0abfff", "name": "Like at home", "rating": 3.8, "tipo_1": "cafe", "tipo_2": "bakery", "tipo_3": "food", "categoria": "gastronomia", "cluster": 0 }, "geometry": { "type": "Point", "coordinates": [ -58.3846414, -34.5926786 ] } },
{ "type": "Feature", "properties": { "place_id": "e1e64d78fbd3487c19475e90c813b68528b509d0", "name": "Starbucks", "rating": 4.1, "tipo_1": "cafe", "tipo_2": "bakery", "tipo_3": "restaurant", "categoria": "gastronomia", "cluster": 0 }, "geometry": { "type": "Point", "coordinates": [ -58.3864911, -34.6028536 ] } },
{ "type": "Feature", "properties": { "place_id": "f076289c32cfbdac2f4c1e25fb7dd0930d0e4fa7", "name": "COSI", "rating": 4.5, "tipo_1": "cafe", "tipo_2": "bakery", "tipo_3": "food", "categoria": "gastronomia", "cluster": 0 }, "geometry": { "type": "Point", "coordinates": [ -58.3731594, -34.6141495 ] } },
{ "type": "Feature", "properties": { "place_id": "05112d32f80821d4644e727f3b9fd3d6461769b2", "name": "Bonafide", "rating": 3.8, "tipo_1": "cafe", "tipo_2": "bakery", "tipo_3": "food", "categoria": "gastronomia", "cluster": 0 }, "geometry": { "type": "Point", "coordinates": [ -58.417474, -34.6107366 ] } },
{ "type": "Feature", "properties": { "place_id": "360fdafd4abfa6116b6186d71b7619afe89ee973", "name": "Havanna", "rating": 3.8, "tipo_1": "cafe", "tipo_2": "bakery", "tipo_3": "food", "categoria": "gastronomia", "cluster": 0 }, "geometry": { "type": "Point", "coordinates": [ -58.3981906, -34.6045184 ] } },
{ "type": "Feature", "properties": { "place_id": "bfd7925b68e43957e2c3f2486a84084100e0d3d7", "name": "Suo Café", "rating": 4.6, "tipo_1": "cafe", "tipo_2": "bakery", "tipo_3": "food", "categoria": "gastronomia", "cluster": 0 }, "geometry": { "type": "Point", "coordinates": [ -58.386501, -34.603451 ] } },
{ "type": "Feature", "properties": { "place_id": "1cc1595e26465df03ff55aa7a9809a25f076b949", "name": "Cafetería Castromil", "rating": null, "tipo_1": "cafe", "tipo_2": "bakery", "tipo_3": "bar", "categoria": "gastronomia", "cluster": 5 }, "geometry": { "type": "Point", "coordinates": [ -58.386329, -34.608095 ] } },
{ "type": "Feature", "properties": { "place_id": "0c0cb167c924bf9581e297213492f7160bf351bf", "name": "stefano", "rating": 2.0, "tipo_1": "cafe", "tipo_2": "bakery", "tipo_3": "food", "categoria": "gastronomia", "cluster": 0 }, "geometry": { "type": "Point", "coordinates": [ -58.410905, -34.603409 ] } },
{ "type": "Feature", "properties": { "place_id": "06de7bf305c84fc621c62c04e6097aeae5bc31af", "name": "Bambú", "rating": 4.0, "tipo_1": "cafe", "tipo_2": "bakery", "tipo_3": "restaurant", "categoria": "gastronomia", "cluster": 0 }, "geometry": { "type": "Point", "coordinates": [ -58.445129, -34.621897 ] } },
{ "type": "Feature", "properties": { "place_id": "5313489f7a346f1ec796fea74cdbcb68e6d65ded", "name": "La Esquina de Villa Crespo", "rating": 4.2, "tipo_1": "cafe", "tipo_2": "bakery", "tipo_3": "food", "categoria": "gastronomia", "cluster": 0 }, "geometry": { "type": "Point", "coordinates": [ -58.437262, -34.6014179 ] } },
{ "type": "Feature", "properties": { "place_id": "0edbc1386bc58e12cfa13b649ce54f9a3d091eb1", "name": "Caffé Los Molinos", "rating": 3.8, "tipo_1": "cafe", "tipo_2": "bakery", "tipo_3": "food", "categoria": "gastronomia", "cluster": 0 }, "geometry": { "type": "Point", "coordinates": [ -58.4045518, -34.5836414 ] } },
{ "type": "Feature", "properties": { "place_id": "46c033f7fadbc5b49e4df4645364e90f8ba8cafd", "name": "Café del Botánico", "rating": 4.1, "tipo_1": "cafe", "tipo_2": "bakery", "tipo_3": "food", "categoria": "gastronomia", "cluster": 0 }, "geometry": { "type": "Point", "coordinates": [ -58.4124984, -34.5892824 ] } },
{ "type": "Feature", "properties": { "place_id": "159ce8fc6c9c4c9bd3caf28b8a742c07c86e3d42", "name": "Bonafide", "rating": 4.0, "tipo_1": "cafe", "tipo_2": "bakery", "tipo_3": "food", "categoria": "gastronomia", "cluster": 0 }, "geometry": { "type": "Point", "coordinates": [ -58.4172595, -34.5858279 ] } },
{ "type": "Feature", "properties": { "place_id": "0a3b22bcb4c9d63257d89814049bf9e25a4eaa84", "name": "Nuestras Delicias", "rating": 4.1, "tipo_1": "cafe", "tipo_2": "bakery", "tipo_3": "food", "categoria": "gastronomia", "cluster": 0 }, "geometry": { "type": "Point", "coordinates": [ -58.396729, -34.59097 ] } },
{ "type": "Feature", "properties": { "place_id": "d1df809fa93f71c236125ae2930a40ecc864571b", "name": "moremore", "rating": 4.6, "tipo_1": "cafe", "tipo_2": "bakery", "tipo_3": "food", "categoria": "gastronomia", "cluster": 7 }, "geometry": { "type": "Point", "coordinates": [ -58.4366402, -34.5822348 ] } },
{ "type": "Feature", "properties": { "place_id": "2092a6ba9794ad78e66b7bccb95cd8740b622721", "name": "Dulce Charlotte", "rating": 4.4, "tipo_1": "cafe", "tipo_2": "bakery", "tipo_3": "restaurant", "categoria": "gastronomia", "cluster": 7 }, "geometry": { "type": "Point", "coordinates": [ -58.434949, -34.582643 ] } },
{ "type": "Feature", "properties": { "place_id": "b8d9c1f89ff0a1bbf3f897cc9fb7342698ba8c9a", "name": "La Panera Rosa", "rating": 4.2, "tipo_1": "cafe", "tipo_2": "bakery", "tipo_3": "food", "categoria": "gastronomia", "cluster": 0 }, "geometry": { "type": "Point", "coordinates": [ -58.4363958, -34.5655105 ] } },
{ "type": "Feature", "properties": { "place_id": "bf55762b05f5a57b5f363b5e24d9d731e34ef322", "name": "Decata", "rating": 3.9, "tipo_1": "cafe", "tipo_2": "bakery", "tipo_3": "meal_takeaway", "categoria": "gastronomia", "cluster": 0 }, "geometry": { "type": "Point", "coordinates": [ -58.4334236, -34.5682209 ] } },
{ "type": "Feature", "properties": { "place_id": "a16f3d1807e5fd91b3aa79e0fba3cd3f79bba28c", "name": "Nucha", "rating": 3.6, "tipo_1": "cafe", "tipo_2": "bakery", "tipo_3": "food", "categoria": "gastronomia", "cluster": 0 }, "geometry": { "type": "Point", "coordinates": [ -58.4474197, -34.5665514 ] } },
{ "type": "Feature", "properties": { "place_id": "81892268cbfa1e50e38ac6249bcb6b62a0e7dd88", "name": "Pan & Canela", "rating": 4.3, "tipo_1": "cafe", "tipo_2": "bakery", "tipo_3": "food", "categoria": "gastronomia", "cluster": 0 }, "geometry": { "type": "Point", "coordinates": [ -58.460775, -34.565773 ] } },
{ "type": "Feature", "properties": { "place_id": "a11708a248076f954fd4e6aed542dfe8d939daa9", "name": "Panaderia Mery Flo", "rating": 3.3, "tipo_1": "cafe", "tipo_2": "bakery", "tipo_3": "food", "categoria": "gastronomia", "cluster": 0 }, "geometry": { "type": "Point", "coordinates": [ -58.462524, -34.5558222 ] } },
{ "type": "Feature", "properties": { "place_id": "323eb614a26ebf4583b7f91f2506b63143d0f2bc", "name": "Confitería Selene", "rating": 4.2, "tipo_1": "cafe", "tipo_2": "bakery", "tipo_3": "bar", "categoria": "gastronomia", "cluster": 0 }, "geometry": { "type": "Point", "coordinates": [ -58.465551, -34.552485 ] } },
{ "type": "Feature", "properties": { "place_id": "f9d4dbda5b456e290dd416af3beaadbe2cc15dac", "name": "Daiu 1", "rating": 3.3, "tipo_1": "cafe", "tipo_2": "bakery", "tipo_3": "food", "categoria": "gastronomia", "cluster": 0 }, "geometry": { "type": "Point", "coordinates": [ -58.4919457, -34.5705318 ] } },
{ "type": "Feature", "properties": { "place_id": "621acfbd72237d153315ad010a869e9e8abba2d0", "name": "Led Bar", "rating": 3.9, "tipo_1": "bar", "tipo_2": "bakery", "tipo_3": "cafe", "categoria": "gastronomia", "cluster": 0 }, "geometry": { "type": "Point", "coordinates": [ -58.4732963, -34.5667254 ] } },
{ "type": "Feature", "properties": { "place_id": "e21a66e3a86c1248e651f00433091c6ae128a327", "name": "Dobos", "rating": 4.2, "tipo_1": "cafe", "tipo_2": "bakery", "tipo_3": "food", "categoria": "gastronomia", "cluster": 0 }, "geometry": { "type": "Point", "coordinates": [ -58.4870654, -34.5748109 ] } },
{ "type": "Feature", "properties": { "place_id": "890380bc1040c380c9eb0995b910454dd0c6e09b", "name": "EL CÓNDOR", "rating": 4.1, "tipo_1": "cafe", "tipo_2": "bakery", "tipo_3": "food", "categoria": "gastronomia", "cluster": 0 }, "geometry": { "type": "Point", "coordinates": [ -58.497391, -34.598631 ] } },
{ "type": "Feature", "properties": { "place_id": "93b4b11b9d8dcbbfd266d6dffc15d80324036012", "name": "La Imperial", "rating": 4.0, "tipo_1": "cafe", "tipo_2": "bakery", "tipo_3": "bar", "categoria": "gastronomia", "cluster": 0 }, "geometry": { "type": "Point", "coordinates": [ -58.4849608, -34.5733824 ] } },
{ "type": "Feature", "properties": { "place_id": "47059f65c1e0740a24fdb1c6d5a9592f03edd8ba", "name": "Tomassino", "rating": 3.5, "tipo_1": "cafe", "tipo_2": "bakery", "tipo_3": "food", "categoria": "gastronomia", "cluster": 0 }, "geometry": { "type": "Point", "coordinates": [ -58.515445, -34.5945789 ] } },
{ "type": "Feature", "properties": { "place_id": "a94bb20cc174bf170eba86368c4fa59b732384ea", "name": "El Patio", "rating": 2.0, "tipo_1": "bar", "tipo_2": "point_of_interest", "tipo_3": "establishment", "categoria": "gastronomia", "cluster": 0 }, "geometry": { "type": "Point", "coordinates": [ -58.4410796, -34.6319513 ] } },
{ "type": "Feature", "properties": { "place_id": "5b7db2b7aac233dbefb516769c83bee84d3e5acc", "name": "Viña Eladio", "rating": null, "tipo_1": "bar", "tipo_2": "point_of_interest", "tipo_3": "establishment", "categoria": "gastronomia", "cluster": 0 }, "geometry": { "type": "Point", "coordinates": [ -58.4671478, -34.6298762 ] } },
{ "type": "Feature", "properties": { "place_id": "e6599ca43fdea39aa1d5cbcb7cc116d02f45792f", "name": "KURZ", "rating": 4.0, "tipo_1": "bar", "tipo_2": "point_of_interest", "tipo_3": "establishment", "categoria": "gastronomia", "cluster": 0 }, "geometry": { "type": "Point", "coordinates": [ -58.5239765, -34.6560717 ] } },
{ "type": "Feature", "properties": { "place_id": "35c0456e8e67254e678d72b981eebd0805fa719c", "name": "Bar Mas", "rating": 1.0, "tipo_1": "bar", "tipo_2": "point_of_interest", "tipo_3": "establishment", "categoria": "gastronomia", "cluster": 0 }, "geometry": { "type": "Point", "coordinates": [ -58.525438, -34.6392804 ] } },
{ "type": "Feature", "properties": { "place_id": "0730a188f0b8425cb766b238de4ddeab7aaf1d42", "name": "Barbaro Bar", "rating": 4.0, "tipo_1": "bar", "tipo_2": "restaurant", "tipo_3": "food", "categoria": "gastronomia", "cluster": 2 }, "geometry": { "type": "Point", "coordinates": [ -58.37312, -34.597893 ] } },
{ "type": "Feature", "properties": { "place_id": "1b04152a8e2d4cfc2de746927c803f4b7bce3212", "name": "Thelonious Club", "rating": 4.4, "tipo_1": "bar", "tipo_2": "night_club", "tipo_3": "point_of_interest", "categoria": "gastronomia", "cluster": 0 }, "geometry": { "type": "Point", "coordinates": [ -58.4148203, -34.588304 ] } },
{ "type": "Feature", "properties": { "place_id": "6b20727f19f9b7aeed9f2f88267ed4f5c1a3642b", "name": "Virasoro Bar", "rating": 4.2, "tipo_1": "bar", "tipo_2": "night_club", "tipo_3": "point_of_interest", "categoria": "gastronomia", "cluster": 0 }, "geometry": { "type": "Point", "coordinates": [ -58.420648, -34.588887 ] } },
{ "type": "Feature", "properties": { "place_id": "a4ac2b8f4f9e7c186d4f72bd1fb8e153990b940e", "name": "Crizia", "rating": 4.6, "tipo_1": "bar", "tipo_2": "restaurant", "tipo_3": "food", "categoria": "gastronomia", "cluster": 1 }, "geometry": { "type": "Point", "coordinates": [ -58.4325674, -34.5884395 ] } },
{ "type": "Feature", "properties": { "place_id": "b190a3b4225ebcce11829da0c8f8da85718f1a85", "name": "Wherever", "rating": 4.5, "tipo_1": "bar", "tipo_2": "point_of_interest", "tipo_3": "establishment", "categoria": "gastronomia", "cluster": 0 }, "geometry": { "type": "Point", "coordinates": [ -58.424896, -34.579662 ] } },
{ "type": "Feature", "properties": { "place_id": "d62ae007793a7b358c830f38ce1962f735930881", "name": "La Fábrica del Taco", "rating": 4.0, "tipo_1": "bar", "tipo_2": "restaurant", "tipo_3": "food", "categoria": "gastronomia", "cluster": 1 }, "geometry": { "type": "Point", "coordinates": [ -58.431796, -34.589089 ] } },
{ "type": "Feature", "properties": { "place_id": "93c51b4d17c64a289ea26e5adc9f80a145d58ae9", "name": "Super Soul (Bar)", "rating": null, "tipo_1": "bar", "tipo_2": "point_of_interest", "tipo_3": "establishment", "categoria": "gastronomia", "cluster": 8 }, "geometry": { "type": "Point", "coordinates": [ -58.43056, -34.5723 ] } },
{ "type": "Feature", "properties": { "place_id": "218e182805d67fbd3ae2eb9da556251365b6fb31", "name": "Meridiano 58", "rating": 4.1, "tipo_1": "bar", "tipo_2": "restaurant", "tipo_3": "food", "categoria": "gastronomia", "cluster": 1 }, "geometry": { "type": "Point", "coordinates": [ -58.4291516, -34.5881822 ] } },
{ "type": "Feature", "properties": { "place_id": "86e36c593415baaf395af30d17e3dcd4adea1a23", "name": "La Buena Medida (Bar Notable)", "rating": 3.9, "tipo_1": "bar", "tipo_2": "point_of_interest", "tipo_3": "establishment", "categoria": "gastronomia", "cluster": 0 }, "geometry": { "type": "Point", "coordinates": [ -58.35496, -34.63371 ] } },
{ "type": "Feature", "properties": { "place_id": "7f00cd3c4780926b0b6eca70beb8aff5d071e164", "name": "Food & Coffee", "rating": 4.6, "tipo_1": "bar", "tipo_2": "restaurant", "tipo_3": "food", "categoria": "gastronomia", "cluster": 0 }, "geometry": { "type": "Point", "coordinates": [ -58.3899794, -34.6227557 ] } },
{ "type": "Feature", "properties": { "place_id": "e597efcffc96be050e1e68bb3c1a03ea10105226", "name": "Gate One Bar", "rating": 4.3, "tipo_1": "bar", "tipo_2": "point_of_interest", "tipo_3": "establishment", "categoria": "gastronomia", "cluster": 0 }, "geometry": { "type": "Point", "coordinates": [ -58.449732, -34.557792 ] } },
{ "type": "Feature", "properties": { "place_id": "a8eef9cbc4f1903afd7790cb763407b2109c3b7a", "name": "Bar Seddon", "rating": 4.0, "tipo_1": "bar", "tipo_2": "restaurant", "tipo_3": "food", "categoria": "gastronomia", "cluster": 4 }, "geometry": { "type": "Point", "coordinates": [ -58.371876, -34.615947 ] } },
{ "type": "Feature", "properties": { "place_id": "f21fb81edb9088959b89e668e9f7ad84cc0c0095", "name": "LA BARRA", "rating": 3.5, "tipo_1": "bar", "tipo_2": "restaurant", "tipo_3": "food", "categoria": "gastronomia", "cluster": 0 }, "geometry": { "type": "Point", "coordinates": [ -58.400668, -34.591582 ] } },
{ "type": "Feature", "properties": { "place_id": "bb79bced28de2c5190ea82862612d7c62c297659", "name": "Casa Cruz", "rating": 3.8, "tipo_1": "bar", "tipo_2": "restaurant", "tipo_3": "food", "categoria": "gastronomia", "cluster": 1 }, "geometry": { "type": "Point", "coordinates": [ -58.4313958, -34.5867454 ] } },
{ "type": "Feature", "properties": { "place_id": "881bd4ce23f6372514d496589fbbfb4360abadd8", "name": "Barros", "rating": 4.0, "tipo_1": "bar", "tipo_2": "point_of_interest", "tipo_3": "establishment", "categoria": "gastronomia", "cluster": 0 }, "geometry": { "type": "Point", "coordinates": [ -58.3797558, -34.611821 ] } },
{ "type": "Feature", "properties": { "place_id": "c627f650ee1215ce84701cb93d9e5bdc888066d6", "name": "Places Coffee & Bar", "rating": 4.3, "tipo_1": "bar", "tipo_2": "cafe", "tipo_3": "restaurant", "categoria": "gastronomia", "cluster": 0 }, "geometry": { "type": "Point", "coordinates": [ -58.379543, -34.600136 ] } },
{ "type": "Feature", "properties": { "place_id": "52af81f524842b6af551149886c9d8cfab9b0a7d", "name": "Carnal Resto Bar", "rating": 3.9, "tipo_1": "bar", "tipo_2": "point_of_interest", "tipo_3": "establishment", "categoria": "gastronomia", "cluster": 0 }, "geometry": { "type": "Point", "coordinates": [ -58.438408, -34.5872365 ] } },
{ "type": "Feature", "properties": { "place_id": "cbe0b9c3e8c4e044ea85b6e527e7d8c5facded65", "name": "Green Bamboo Restaurant", "rating": 4.2, "tipo_1": "bar", "tipo_2": "restaurant", "tipo_3": "food", "categoria": "gastronomia", "cluster": 0 }, "geometry": { "type": "Point", "coordinates": [ -58.4368999, -34.5810778 ] } },
{ "type": "Feature", "properties": { "place_id": "abd3c8162129d3829dd3d253fd606c4e846e1056", "name": "Bblue Deli & Natural Bar", "rating": 4.1, "tipo_1": "bar", "tipo_2": "point_of_interest", "tipo_3": "establishment", "categoria": "gastronomia", "cluster": 1 }, "geometry": { "type": "Point", "coordinates": [ -58.4274557, -34.5894076 ] } },
{ "type": "Feature", "properties": { "place_id": "84b93c0b8700687df9495e7abdf72c18382a5524", "name": "Flux Bar", "rating": 4.3, "tipo_1": "bar", "tipo_2": "point_of_interest", "tipo_3": "establishment", "categoria": "gastronomia", "cluster": 0 }, "geometry": { "type": "Point", "coordinates": [ -58.3810021, -34.5967156 ] } },
{ "type": "Feature", "properties": { "place_id": "917d30139042a79adbbcbba9b20a825e23698d18", "name": "Kika", "rating": 3.7, "tipo_1": "bar", "tipo_2": "night_club", "tipo_3": "point_of_interest", "categoria": "gastronomia", "cluster": 1 }, "geometry": { "type": "Point", "coordinates": [ -58.4332363, -34.5863992 ] } },
{ "type": "Feature", "properties": { "place_id": "2a14cdb79207f03365abb131a12e46b000fa5acd", "name": "Bar 878", "rating": 4.3, "tipo_1": "bar", "tipo_2": "restaurant", "tipo_3": "food", "categoria": "gastronomia", "cluster": 0 }, "geometry": { "type": "Point", "coordinates": [ -58.4391055, -34.5928991 ] } },
{ "type": "Feature", "properties": { "place_id": "3671793f4c55671f360052c57ce5f5a0e1ddad98", "name": "Congo Bar", "rating": 3.9, "tipo_1": "bar", "tipo_2": "restaurant", "tipo_3": "food", "categoria": "gastronomia", "cluster": 1 }, "geometry": { "type": "Point", "coordinates": [ -58.433115, -34.586511 ] } },
{ "type": "Feature", "properties": { "place_id": "099f7cf214ac23d618bd1ac983866af16a4f667a", "name": "Gran Bar Danzon", "rating": 4.3, "tipo_1": "bar", "tipo_2": "restaurant", "tipo_3": "food", "categoria": "gastronomia", "cluster": 0 }, "geometry": { "type": "Point", "coordinates": [ -58.384121, -34.594881 ] } },
{ "type": "Feature", "properties": { "place_id": "6d0f2978c0c854b5dcbdae562234e39e344fa5fc", "name": "Isabel", "rating": 4.3, "tipo_1": "bar", "tipo_2": "restaurant", "tipo_3": "food", "categoria": "gastronomia", "cluster": 1 }, "geometry": { "type": "Point", "coordinates": [ -58.4315815, -34.5868976 ] } },
{ "type": "Feature", "properties": { "place_id": "d3dc0aaea48238a0d23c24ad543e3fb5c645958e", "name": "La Farola de Urquiza", "rating": 3.9, "tipo_1": "cafe", "tipo_2": "bar", "tipo_3": "restaurant", "categoria": "gastronomia", "cluster": 0 }, "geometry": { "type": "Point", "coordinates": [ -58.485534, -34.5739006 ] } },
{ "type": "Feature", "properties": { "place_id": "9a11bd2703fef4e812e2d5c17ba9806a16606ebe", "name": "El Faro", "rating": 4.4, "tipo_1": "bar", "tipo_2": "meal_takeaway", "tipo_3": "restaurant", "categoria": "gastronomia", "cluster": 0 }, "geometry": { "type": "Point", "coordinates": [ -58.488519, -34.584806 ] } },
{ "type": "Feature", "properties": { "place_id": "e1850a8621b6cc436a5cf4e9b845d25c5e7c3416", "name": "El Viejo Almacén", "rating": 4.3, "tipo_1": "bar", "tipo_2": "restaurant", "tipo_3": "food", "categoria": "gastronomia", "cluster": 0 }, "geometry": { "type": "Point", "coordinates": [ -58.3698729, -34.6169893 ] } },
{ "type": "Feature", "properties": { "place_id": "ecadccbea7a77c132fc9554c40e1a88a66e82518", "name": "Goa la France", "rating": 4.0, "tipo_1": "bar", "tipo_2": "night_club", "tipo_3": "point_of_interest", "categoria": "gastronomia", "cluster": 6 }, "geometry": { "type": "Point", "coordinates": [ -58.390137, -34.6055579 ] } },
{ "type": "Feature", "properties": { "place_id": "cc9bce8b96fb572613ed55ba7e8581a5e438ebe9", "name": "Café Bar El Teatro", "rating": 3.9, "tipo_1": "bar", "tipo_2": "restaurant", "tipo_3": "food", "categoria": "gastronomia", "cluster": 0 }, "geometry": { "type": "Point", "coordinates": [ -58.3843924, -34.5990131 ] } },
{ "type": "Feature", "properties": { "place_id": "b559e7034f9445018c45cf5c46c46c012d5126cc", "name": "UNICLUB", "rating": 3.9, "tipo_1": "bar", "tipo_2": "night_club", "tipo_3": "point_of_interest", "categoria": "gastronomia", "cluster": 0 }, "geometry": { "type": "Point", "coordinates": [ -58.4122432, -34.6026773 ] } },
{ "type": "Feature", "properties": { "place_id": "dd03ee7ef7b51dbaff725472a508c19dbc9cb96e", "name": "Club Bahrein", "rating": 4.3, "tipo_1": "bar", "tipo_2": "restaurant", "tipo_3": "food", "categoria": "gastronomia", "cluster": 0 }, "geometry": { "type": "Point", "coordinates": [ -58.3717838, -34.6020035 ] } },
{ "type": "Feature", "properties": { "place_id": "0a3c22c2be44ad80b3807989cd948e39da5016af", "name": "The Temple Bar", "rating": 3.8, "tipo_1": "bar", "tipo_2": "restaurant", "tipo_3": "food", "categoria": "gastronomia", "cluster": 0 }, "geometry": { "type": "Point", "coordinates": [ -58.3805866, -34.5965531 ] } },
{ "type": "Feature", "properties": { "place_id": "acb19b67a7d5a97823942e167ca812d9a59776ad", "name": "The Kilkenny", "rating": 3.7, "tipo_1": "bar", "tipo_2": "restaurant", "tipo_3": "food", "categoria": "gastronomia", "cluster": 2 }, "geometry": { "type": "Point", "coordinates": [ -58.3730026, -34.5961195 ] } },
{ "type": "Feature", "properties": { "place_id": "62eb7bbcb604a99e9554ee247362768d52bf78bf", "name": "Eco Pampa Hostel", "rating": 4.1, "tipo_1": "bar", "tipo_2": "lodging", "tipo_3": "point_of_interest", "categoria": "gastronomia", "cluster": 0 }, "geometry": { "type": "Point", "coordinates": [ -58.4252449, -34.5858147 ] } },
{ "type": "Feature", "properties": { "place_id": "d24477c6e21226b460ce7e9a3b95a1f5f55cf207", "name": "Algodon Mansion", "rating": 4.5, "tipo_1": "bar", "tipo_2": "spa", "tipo_3": "lodging", "categoria": "gastronomia", "cluster": 0 }, "geometry": { "type": "Point", "coordinates": [ -58.3874866, -34.5912824 ] } },
{ "type": "Feature", "properties": { "place_id": "e7ce4999c425eef23b0c107b31878c93caf7347a", "name": "Prodeo Hotel + Lounge", "rating": 4.1, "tipo_1": "bar", "tipo_2": "night_club", "tipo_3": "lodging", "categoria": "gastronomia", "cluster": 1 }, "geometry": { "type": "Point", "coordinates": [ -58.434626, -34.587125 ] } },
{ "type": "Feature", "properties": { "place_id": "8d4372fba26a45ea671851bd89f0cdebcc9f6c94", "name": "Bo Bo Hotel & Restaurant", "rating": 4.4, "tipo_1": "bar", "tipo_2": "lodging", "tipo_3": "restaurant", "categoria": "gastronomia", "cluster": 0 }, "geometry": { "type": "Point", "coordinates": [ -58.4260519, -34.5850726 ] } },
{ "type": "Feature", "properties": { "place_id": "dc51d323201219772c04aa2b5199bd06aa721bce", "name": "La Puerta Roja", "rating": 4.3, "tipo_1": "bar", "tipo_2": "restaurant", "tipo_3": "food", "categoria": "gastronomia", "cluster": 0 }, "geometry": { "type": "Point", "coordinates": [ -58.3759873, -34.6166545 ] } },
{ "type": "Feature", "properties": { "place_id": "f8b7fe7f6cadaa2445a10112e2adbf5bfe986591", "name": "La Cabrera Parrilla Palermo", "rating": 4.3, "tipo_1": "bar", "tipo_2": "restaurant", "tipo_3": "food", "categoria": "gastronomia", "cluster": 1 }, "geometry": { "type": "Point", "coordinates": [ -58.4328436, -34.5893886 ] } },
{ "type": "Feature", "properties": { "place_id": "4a44e7c7e7e4d90f3a5fc6b0b8c4a6bd4b94360f", "name": "Sucre Restaurant Bar Grill", "rating": 4.0, "tipo_1": "bar", "tipo_2": "food", "tipo_3": "point_of_interest", "categoria": "gastronomia", "cluster": 0 }, "geometry": { "type": "Point", "coordinates": [ -58.4367966, -34.5531899 ] } },
{ "type": "Feature", "properties": { "place_id": "5b05c7cded63a02040334d3d01ffc68c57c25fdb", "name": "Jackie O", "rating": 3.8, "tipo_1": "bar", "tipo_2": "restaurant", "tipo_3": "food", "categoria": "gastronomia", "cluster": 8 }, "geometry": { "type": "Point", "coordinates": [ -58.431539, -34.5719346 ] } },
{ "type": "Feature", "properties": { "place_id": "73b3210e152d97177546d38ab76bf7a191ba1a00", "name": "Museum", "rating": 4.0, "tipo_1": "bar", "tipo_2": "night_club", "tipo_3": "point_of_interest", "categoria": "gastronomia", "cluster": 0 }, "geometry": { "type": "Point", "coordinates": [ -58.3746834, -34.6141509 ] } },
{ "type": "Feature", "properties": { "place_id": "4f63f7fd5b3edf4495dcf0f1173824cd60ea2f96", "name": "Las Violetas", "rating": 4.3, "tipo_1": "cafe", "tipo_2": "bar", "tipo_3": "restaurant", "categoria": "gastronomia", "cluster": 0 }, "geometry": { "type": "Point", "coordinates": [ -58.4208926, -34.6112606 ] } },
{ "type": "Feature", "properties": { "place_id": "c121c8e2522983218b06843a9a628a6f6837db42", "name": "Sobek Bowling", "rating": 4.1, "tipo_1": "bar", "tipo_2": "point_of_interest", "tipo_3": "establishment", "categoria": "gastronomia", "cluster": 0 }, "geometry": { "type": "Point", "coordinates": [ -58.4701091, -34.6306723 ] } },
{ "type": "Feature", "properties": { "place_id": "3ae677f1e63cdf13fa4be5efe95eebdd8629bcb5", "name": "Mitos Argentinos", "rating": 3.9, "tipo_1": "bar", "tipo_2": "point_of_interest", "tipo_3": "establishment", "categoria": "gastronomia", "cluster": 3 }, "geometry": { "type": "Point", "coordinates": [ -58.372781, -34.620604 ] } },
{ "type": "Feature", "properties": { "place_id": "3a7c2c017b7d1000ccb2308d990840a02193ec92", "name": "La Cigale Bar", "rating": 3.8, "tipo_1": "bar", "tipo_2": "restaurant", "tipo_3": "food", "categoria": "gastronomia", "cluster": 0 }, "geometry": { "type": "Point", "coordinates": [ -58.371207, -34.600865 ] } },
{ "type": "Feature", "properties": { "place_id": "2d5c9d40667c013f3eb8cb37390342ffa77062bb", "name": "Krakow Bar", "rating": 4.1, "tipo_1": "bar", "tipo_2": "restaurant", "tipo_3": "food", "categoria": "gastronomia", "cluster": 0 }, "geometry": { "type": "Point", "coordinates": [ -58.3728599, -34.613746 ] } },
{ "type": "Feature", "properties": { "place_id": "b00555a312eba8eb2cd71dfe52a34c38866e267f", "name": "Restaurante Laurak Bat", "rating": 4.2, "tipo_1": "bar", "tipo_2": "restaurant", "tipo_3": "food", "categoria": "gastronomia", "cluster": 0 }, "geometry": { "type": "Point", "coordinates": [ -58.382414, -34.613284 ] } },
{ "type": "Feature", "properties": { "place_id": "5bfc730c0f69aa832e5ae8e29c082b2f23aa1d7e", "name": "Jobs", "rating": 4.2, "tipo_1": "bar", "tipo_2": "restaurant", "tipo_3": "food", "categoria": "gastronomia", "cluster": 0 }, "geometry": { "type": "Point", "coordinates": [ -58.40665, -34.590755 ] } },
{ "type": "Feature", "properties": { "place_id": "27b5707b49b6f456ba6dbbe48fdc39fe118170c8", "name": "Cantina Il Piccolo Vapore", "rating": 3.7, "tipo_1": "bar", "tipo_2": "point_of_interest", "tipo_3": "establishment", "categoria": "gastronomia", "cluster": 0 }, "geometry": { "type": "Point", "coordinates": [ -58.3575567, -34.6346673 ] } },
{ "type": "Feature", "properties": { "place_id": "af04ce1e01dc7770681f25a54ecba9ba3d675f00", "name": "M Buenos Aires", "rating": 4.1, "tipo_1": "bar", "tipo_2": "restaurant", "tipo_3": "food", "categoria": "gastronomia", "cluster": 0 }, "geometry": { "type": "Point", "coordinates": [ -58.370739, -34.6129139 ] } },
{ "type": "Feature", "properties": { "place_id": "4f727ee875e95f6e3b43d2099e969353cfbc9212", "name": "Rotisería Miramar", "rating": 4.2, "tipo_1": "bar", "tipo_2": "restaurant", "tipo_3": "food", "categoria": "gastronomia", "cluster": 0 }, "geometry": { "type": "Point", "coordinates": [ -58.393597, -34.622738 ] } },
{ "type": "Feature", "properties": { "place_id": "926193e0df9de95cef38525e1b43e208cf8db8aa", "name": "Bar Los Laureles", "rating": 4.5, "tipo_1": "bar", "tipo_2": "restaurant", "tipo_3": "food", "categoria": "gastronomia", "cluster": 0 }, "geometry": { "type": "Point", "coordinates": [ -58.3794673, -34.6496084 ] } },
{ "type": "Feature", "properties": { "place_id": "31cda7136c592f8b57f9d1df9176a30d3add2936", "name": "El Hipopotamo", "rating": 4.1, "tipo_1": "cafe", "tipo_2": "bar", "tipo_3": "restaurant", "categoria": "gastronomia", "cluster": 0 }, "geometry": { "type": "Point", "coordinates": [ -58.3711705, -34.6252926 ] } },
{ "type": "Feature", "properties": { "place_id": "08494676cb9f379bb03c8ad1882c65bab819078f", "name": "La Farmacia - Café Bar", "rating": 4.1, "tipo_1": "cafe", "tipo_2": "bar", "tipo_3": "restaurant", "categoria": "gastronomia", "cluster": 0 }, "geometry": { "type": "Point", "coordinates": [ -58.460462, -34.63364 ] } },
{ "type": "Feature", "properties": { "place_id": "a45a2ffd96cacbeba9f0554f6faaa28a37218bdd", "name": "The Cavern Buenos Aires", "rating": 4.0, "tipo_1": "cafe", "tipo_2": "bar", "tipo_3": "liquor_store", "categoria": "gastronomia", "cluster": 6 }, "geometry": { "type": "Point", "coordinates": [ -58.390187, -34.604354 ] } },
{ "type": "Feature", "properties": { "place_id": "3ac86163d804f6d27f6cf8af7764561d776c198f", "name": "El Maipú", "rating": 4.4, "tipo_1": "bar", "tipo_2": "restaurant", "tipo_3": "food", "categoria": "gastronomia", "cluster": 3 }, "geometry": { "type": "Point", "coordinates": [ -58.3721644, -34.6217376 ] } },
{ "type": "Feature", "properties": { "place_id": "7f44e1a8d65dab634b0dc7a283995afc83fba9f0", "name": "Contact Pub Cafe", "rating": 3.6, "tipo_1": "bar", "tipo_2": "point_of_interest", "tipo_3": "establishment", "categoria": "gastronomia", "cluster": 0 }, "geometry": { "type": "Point", "coordinates": [ -58.4554844, -34.6234336 ] } },
{ "type": "Feature", "properties": { "place_id": "fd745c7dd5b680c5651d2628f47e2c045df5c30f", "name": "Unione e Benevolenza", "rating": 3.6, "tipo_1": "bar", "tipo_2": "school", "tipo_3": "point_of_interest", "categoria": "gastronomia", "cluster": 0 }, "geometry": { "type": "Point", "coordinates": [ -58.3858512, -34.6064517 ] } },
{ "type": "Feature", "properties": { "place_id": "131afb3f854dcbc463f4c35a794c37a5dfd5dc9c", "name": "Aromi", "rating": 3.9, "tipo_1": "bar", "tipo_2": "restaurant", "tipo_3": "food", "categoria": "gastronomia", "cluster": 0 }, "geometry": { "type": "Point", "coordinates": [ -58.4318208, -34.6022037 ] } },
{ "type": "Feature", "properties": { "place_id": "a35c7a77672578f0efb638e25be78a1b8f662db8", "name": "La Iberica", "rating": 4.2, "tipo_1": "bar", "tipo_2": "point_of_interest", "tipo_3": "establishment", "categoria": "gastronomia", "cluster": 0 }, "geometry": { "type": "Point", "coordinates": [ -58.3912375, -34.6238682 ] } },
{ "type": "Feature", "properties": { "place_id": "15c6e4416f4ff1e62ca9dea74f96b721b50b37e4", "name": "Bonafide Chocolate", "rating": 3.5, "tipo_1": "cafe", "tipo_2": "bar", "tipo_3": "food", "categoria": "gastronomia", "cluster": 0 }, "geometry": { "type": "Point", "coordinates": [ -58.4057998, -34.6365598 ] } },
{ "type": "Feature", "properties": { "place_id": "c39f2e95f6007ee26ad73a5e76e1f7be7f8a5119", "name": "1745", "rating": 4.3, "tipo_1": "bar", "tipo_2": "restaurant", "tipo_3": "food", "categoria": "gastronomia", "cluster": 0 }, "geometry": { "type": "Point", "coordinates": [ -58.3912733, -34.6078825 ] } },
{ "type": "Feature", "properties": { "place_id": "7b97ec82d6b4638bbd07d6613204d926a26ec47b", "name": "Maracaíbo (Tango)", "rating": 4.4, "tipo_1": "bar", "tipo_2": "point_of_interest", "tipo_3": "establishment", "categoria": "gastronomia", "cluster": 0 }, "geometry": { "type": "Point", "coordinates": [ -58.37653, -34.60383 ] } },
{ "type": "Feature", "properties": { "place_id": "d26978d5c641e461c7a3622bb3c830372df6947e", "name": "Bonifacio Restobar", "rating": 4.3, "tipo_1": "bar", "tipo_2": "restaurant", "tipo_3": "food", "categoria": "gastronomia", "cluster": 0 }, "geometry": { "type": "Point", "coordinates": [ -58.451656, -34.629289 ] } },
{ "type": "Feature", "properties": { "place_id": "5261db395607cd9befef84256e0d761e58368ab6", "name": "Rosa De Los Vientos - Bar De Tapas", "rating": 4.3, "tipo_1": "bar", "tipo_2": "restaurant", "tipo_3": "food", "categoria": "gastronomia", "cluster": 0 }, "geometry": { "type": "Point", "coordinates": [ -58.3711472, -34.6238874 ] } },
{ "type": "Feature", "properties": { "place_id": "9e516741ace9e50d21dea46ddf0c2de0e5366e92", "name": "Bar de Cao", "rating": 4.1, "tipo_1": "bar", "tipo_2": "restaurant", "tipo_3": "food", "categoria": "gastronomia", "cluster": 0 }, "geometry": { "type": "Point", "coordinates": [ -58.399894, -34.618707 ] } },
{ "type": "Feature", "properties": { "place_id": "61f59c225c105dc3a927f93fa0924aed09d216c1", "name": "The Gibraltar", "rating": 4.2, "tipo_1": "bar", "tipo_2": "point_of_interest", "tipo_3": "establishment", "categoria": "gastronomia", "cluster": 0 }, "geometry": { "type": "Point", "coordinates": [ -58.3744336, -34.6183721 ] } },
{ "type": "Feature", "properties": { "place_id": "b88350a2efbb1b539dde2d8926aaad59ba0b7dd4", "name": "Chiquilin", "rating": 4.2, "tipo_1": "bar", "tipo_2": "restaurant", "tipo_3": "food", "categoria": "gastronomia", "cluster": 6 }, "geometry": { "type": "Point", "coordinates": [ -58.389156, -34.60517 ] } },
{ "type": "Feature", "properties": { "place_id": "d242a6e94cc86b18e0ab6178c340945530f20f2d", "name": "El Naranjo Tablao Flamenco", "rating": 4.7, "tipo_1": "bar", "tipo_2": "restaurant", "tipo_3": "food", "categoria": "gastronomia", "cluster": 0 }, "geometry": { "type": "Point", "coordinates": [ -58.408366, -34.615138 ] } },
{ "type": "Feature", "properties": { "place_id": "af22f1b0a126a041a0860ea7b004f868791e6f6e", "name": "El Cerrito", "rating": 5.0, "tipo_1": "bar", "tipo_2": "restaurant", "tipo_3": "food", "categoria": "gastronomia", "cluster": 0 }, "geometry": { "type": "Point", "coordinates": [ -58.382146, -34.605823 ] } },
{ "type": "Feature", "properties": { "place_id": "d1b1635ff701f3e72048ffa62f94060bf307a111", "name": "Bar El Chino", "rating": 3.7, "tipo_1": "bar", "tipo_2": "point_of_interest", "tipo_3": "establishment", "categoria": "gastronomia", "cluster": 0 }, "geometry": { "type": "Point", "coordinates": [ -58.409876, -34.6531569 ] } },
{ "type": "Feature", "properties": { "place_id": "e64294352c196aa05caa13ae64cc4f99dec04991", "name": "The Buenos Aires Pub Crawl - Historic San Telmo Viernes", "rating": 3.4, "tipo_1": "bar", "tipo_2": "point_of_interest", "tipo_3": "establishment", "categoria": "gastronomia", "cluster": 0 }, "geometry": { "type": "Point", "coordinates": [ -58.3743779, -34.6179713 ] } },
{ "type": "Feature", "properties": { "place_id": "330836fe300c7367f3a57fcffd63ec5243abdcbc", "name": "Bar la Forja", "rating": 4.2, "tipo_1": "bar", "tipo_2": "point_of_interest", "tipo_3": "establishment", "categoria": "gastronomia", "cluster": 0 }, "geometry": { "type": "Point", "coordinates": [ -58.4639966, -34.626568 ] } },
{ "type": "Feature", "properties": { "place_id": "2325b786e9b8a7c0c095677fb2b5218777559f91", "name": "El Anden", "rating": 3.9, "tipo_1": "bar", "tipo_2": "restaurant", "tipo_3": "food", "categoria": "gastronomia", "cluster": 0 }, "geometry": { "type": "Point", "coordinates": [ -58.4476418, -34.6215989 ] } },
{ "type": "Feature", "properties": { "place_id": "04bae27889870f30553e910a4dff957eb02e1562", "name": "Medio y Medio", "rating": 3.5, "tipo_1": "bar", "tipo_2": "restaurant", "tipo_3": "food", "categoria": "gastronomia", "cluster": 4 }, "geometry": { "type": "Point", "coordinates": [ -58.3704646, -34.6160421 ] } },
{ "type": "Feature", "properties": { "place_id": "0e82354052f88030b06abdcae47d1d9d19dbcb69", "name": "D'ORO", "rating": 4.1, "tipo_1": "bar", "tipo_2": "restaurant", "tipo_3": "food", "categoria": "gastronomia", "cluster": 0 }, "geometry": { "type": "Point", "coordinates": [ -58.3749553, -34.6097189 ] } },
{ "type": "Feature", "properties": { "place_id": "eb6d4301b5281ac5f3e8f1d6854120b5cf814ce7", "name": "San Miguel - Pizza", "rating": 4.2, "tipo_1": "cafe", "tipo_2": "bar", "tipo_3": "restaurant", "categoria": "gastronomia", "cluster": 0 }, "geometry": { "type": "Point", "coordinates": [ -58.3742544, -34.639772 ] } },
{ "type": "Feature", "properties": { "place_id": "714953f208a0518f22e335e26c0c39ff7bf6e0d9", "name": "Café del Arbol", "rating": 4.1, "tipo_1": "cafe", "tipo_2": "bar", "tipo_3": "restaurant", "categoria": "gastronomia", "cluster": 3 }, "geometry": { "type": "Point", "coordinates": [ -58.3717768, -34.6207947 ] } },
{ "type": "Feature", "properties": { "place_id": "ccc58560362c25fc919907b0d1379b8687250039", "name": "Candy", "rating": null, "tipo_1": "bar", "tipo_2": "point_of_interest", "tipo_3": "establishment", "categoria": "gastronomia", "cluster": 0 }, "geometry": { "type": "Point", "coordinates": [ -58.4022514, -34.603711 ] } },
{ "type": "Feature", "properties": { "place_id": "bc5336f99de01fe55c5a41a73af10c215248df74", "name": "Café Bar Notable \"El Banderín\"", "rating": 4.4, "tipo_1": "cafe", "tipo_2": "bar", "tipo_3": "food", "categoria": "gastronomia", "cluster": 0 }, "geometry": { "type": "Point", "coordinates": [ -58.4153613, -34.6016897 ] } },
{ "type": "Feature", "properties": { "place_id": "9af4e5319b0f3dd590a86568ae76c3befce7f637", "name": "Cossab", "rating": 4.2, "tipo_1": "bar", "tipo_2": "restaurant", "tipo_3": "food", "categoria": "gastronomia", "cluster": 0 }, "geometry": { "type": "Point", "coordinates": [ -58.424494, -34.624817 ] } },
{ "type": "Feature", "properties": { "place_id": "8309e89926b441f54cf3ee73de68a7abbee65458", "name": "The Oldest Public Bar Caballito", "rating": 4.2, "tipo_1": "bar", "tipo_2": "point_of_interest", "tipo_3": "establishment", "categoria": "gastronomia", "cluster": 0 }, "geometry": { "type": "Point", "coordinates": [ -58.435345, -34.61729 ] } },
{ "type": "Feature", "properties": { "place_id": "8fa10320d06d0b1e54d342d5a6721b1e1840fe93", "name": "Don Carlos", "rating": 4.3, "tipo_1": "bar", "tipo_2": "restaurant", "tipo_3": "food", "categoria": "gastronomia", "cluster": 0 }, "geometry": { "type": "Point", "coordinates": [ -58.363669, -34.6361033 ] } },
{ "type": "Feature", "properties": { "place_id": "c0a832d3af2899c2fd212961b80dc753c34c8a41", "name": "Vieja Esquina Sandin", "rating": 4.8, "tipo_1": "bar", "tipo_2": "restaurant", "tipo_3": "food", "categoria": "gastronomia", "cluster": 0 }, "geometry": { "type": "Point", "coordinates": [ -58.3716425, -34.6513305 ] } },
{ "type": "Feature", "properties": { "place_id": "635e58a91d73490760e04dda3ca35e0047898bbd", "name": "La Vieja Esquina", "rating": 4.2, "tipo_1": "bar", "tipo_2": "point_of_interest", "tipo_3": "establishment", "categoria": "gastronomia", "cluster": 0 }, "geometry": { "type": "Point", "coordinates": [ -58.3716589, -34.6511442 ] } },
{ "type": "Feature", "properties": { "place_id": "b2dce395892b39c14fefafe184b9e5a5748744c4", "name": "Eduardo B Vargas", "rating": null, "tipo_1": "bar", "tipo_2": "point_of_interest", "tipo_3": "establishment", "categoria": "gastronomia", "cluster": 0 }, "geometry": { "type": "Point", "coordinates": [ -58.3782751, -34.6530839 ] } },
{ "type": "Feature", "properties": { "place_id": "0e42036a7cf2347c9da9d9662236ebe97d2ef04d", "name": "GUIDO GUIDI", "rating": null, "tipo_1": "bar", "tipo_2": "point_of_interest", "tipo_3": "establishment", "categoria": "gastronomia", "cluster": 0 }, "geometry": { "type": "Point", "coordinates": [ -58.3712022, -34.6511476 ] } },
{ "type": "Feature", "properties": { "place_id": "8598096745206dbb7287363060e7aebce7e2fdbc", "name": "Petit Resto", "rating": 4.3, "tipo_1": "bar", "tipo_2": "restaurant", "tipo_3": "food", "categoria": "gastronomia", "cluster": 0 }, "geometry": { "type": "Point", "coordinates": [ -58.376114, -34.648888 ] } },
{ "type": "Feature", "properties": { "place_id": "512b3dd249206356902c9a8fb4a99c2109eb978f", "name": "Noya Antonio", "rating": 3.0, "tipo_1": "bar", "tipo_2": "point_of_interest", "tipo_3": "establishment", "categoria": "gastronomia", "cluster": 0 }, "geometry": { "type": "Point", "coordinates": [ -58.4159537, -34.6509058 ] } },
{ "type": "Feature", "properties": { "place_id": "b956fe44bc6c4c7be44b04fd1e85fa2dacb98229", "name": "Los Lagartos", "rating": null, "tipo_1": "bar", "tipo_2": "night_club", "tipo_3": "point_of_interest", "categoria": "gastronomia", "cluster": 0 }, "geometry": { "type": "Point", "coordinates": [ -58.4034785, -34.6480013 ] } },
{ "type": "Feature", "properties": { "place_id": "232f625d86fb62f2c43b3422b862d36fb37e76bf", "name": "Café Bar Pérez", "rating": 4.0, "tipo_1": "bar", "tipo_2": "cafe", "tipo_3": "food", "categoria": "gastronomia", "cluster": 0 }, "geometry": { "type": "Point", "coordinates": [ -58.416071, -34.648841 ] } },
{ "type": "Feature", "properties": { "place_id": "0e533018d5a19c92745073eec8b2cecd20c07452", "name": "Los Cristales", "rating": 4.7, "tipo_1": "bar", "tipo_2": "restaurant", "tipo_3": "food", "categoria": "gastronomia", "cluster": 0 }, "geometry": { "type": "Point", "coordinates": [ -58.4158297, -34.6485192 ] } },
{ "type": "Feature", "properties": { "place_id": "554b9b7d2abcc248c365c7e3105383ed5d739237", "name": "Pizzeria", "rating": null, "tipo_1": "bar", "tipo_2": "point_of_interest", "tipo_3": "establishment", "categoria": "gastronomia", "cluster": 0 }, "geometry": { "type": "Point", "coordinates": [ -58.387303, -34.6506509 ] } },
{ "type": "Feature", "properties": { "place_id": "4c183b072f7b1ed080743e523ad13a3ac5377131", "name": "\"PIPI CUCU\" Venta De Comida Lomito ,hamburgesas Etc", "rating": null, "tipo_1": "bar", "tipo_2": "point_of_interest", "tipo_3": "establishment", "categoria": "gastronomia", "cluster": 0 }, "geometry": { "type": "Point", "coordinates": [ -58.4005137, -34.6553786 ] } },
{ "type": "Feature", "properties": { "place_id": "6905a847eba90a5142d992a27f96e52f5a088439", "name": "Bahía Café - Bar", "rating": 3.0, "tipo_1": "cafe", "tipo_2": "bar", "tipo_3": "food", "categoria": "gastronomia", "cluster": 0 }, "geometry": { "type": "Point", "coordinates": [ -58.4168346, -34.6568541 ] } },
{ "type": "Feature", "properties": { "place_id": "130b65de0a9cc951413d861bed5f3146c8034f66", "name": "Pena de Los Amigos (Bar del Chino)", "rating": 5.0, "tipo_1": "bar", "tipo_2": "point_of_interest", "tipo_3": "establishment", "categoria": "gastronomia", "cluster": 0 }, "geometry": { "type": "Point", "coordinates": [ -58.4098871, -34.6531975 ] } },
{ "type": "Feature", "properties": { "place_id": "d1eed73eda08022e02c1ee2580616061f623d084", "name": "Teresa Casere", "rating": null, "tipo_1": "bar", "tipo_2": "point_of_interest", "tipo_3": "establishment", "categoria": "gastronomia", "cluster": 0 }, "geometry": { "type": "Point", "coordinates": [ -58.3942683, -34.6540552 ] } },
{ "type": "Feature", "properties": { "place_id": "6fbb4222b1c9aa3c20646469ece0fda24826a550", "name": "y", "rating": null, "tipo_1": "bar", "tipo_2": "point_of_interest", "tipo_3": "establishment", "categoria": "gastronomia", "cluster": 0 }, "geometry": { "type": "Point", "coordinates": [ -58.4175837, -34.655905 ] } },
{ "type": "Feature", "properties": { "place_id": "b86e2869cb7488afa46d2f3cfc773ee0e0f31282", "name": "La Blanqueada", "rating": 3.4, "tipo_1": "bar", "tipo_2": "restaurant", "tipo_3": "food", "categoria": "gastronomia", "cluster": 0 }, "geometry": { "type": "Point", "coordinates": [ -58.4167012, -34.6551005 ] } },
{ "type": "Feature", "properties": { "place_id": "d65aed0d2d890624acb8172c08b12869823c93c3", "name": "Lugar De Salida", "rating": null, "tipo_1": "bar", "tipo_2": "point_of_interest", "tipo_3": "establishment", "categoria": "gastronomia", "cluster": 0 }, "geometry": { "type": "Point", "coordinates": [ -58.4160428, -34.6544337 ] } },
{ "type": "Feature", "properties": { "place_id": "620ea13403b8760d37a097c7ef1b902589970be1", "name": "BAR EL ENCUENTRO", "rating": null, "tipo_1": "bar", "tipo_2": "point_of_interest", "tipo_3": "establishment", "categoria": "gastronomia", "cluster": 0 }, "geometry": { "type": "Point", "coordinates": [ -58.3954664, -34.6521219 ] } },
{ "type": "Feature", "properties": { "place_id": "a3f468484189e1c095567f587cc3bd28755d9a4d", "name": "Caballo negro", "rating": null, "tipo_1": "bar", "tipo_2": "point_of_interest", "tipo_3": "establishment", "categoria": "gastronomia", "cluster": 0 }, "geometry": { "type": "Point", "coordinates": [ -58.3889382, -34.6539896 ] } },
{ "type": "Feature", "properties": { "place_id": "f6f9c0054aa201d860f7f057cca23eae45b6ee38", "name": "La Continental", "rating": 3.8, "tipo_1": "bar", "tipo_2": "restaurant", "tipo_3": "food", "categoria": "gastronomia", "cluster": 0 }, "geometry": { "type": "Point", "coordinates": [ -58.4160906, -34.652406 ] } },
{ "type": "Feature", "properties": { "place_id": "024579206c6a74b3240932fb11d24761945a992c", "name": "Club Charrua Salon de Fiesta y Eventos.", "rating": null, "tipo_1": "bar", "tipo_2": "night_club", "tipo_3": "point_of_interest", "categoria": "gastronomia", "cluster": 0 }, "geometry": { "type": "Point", "coordinates": [ -58.4249732, -34.6588496 ] } },
{ "type": "Feature", "properties": { "place_id": "fa402d26886dee3410ee2b407caf9ec34cdb31ff", "name": "Grill 66 Bar Restaurante", "rating": 4.0, "tipo_1": "bar", "tipo_2": "restaurant", "tipo_3": "food", "categoria": "gastronomia", "cluster": 0 }, "geometry": { "type": "Point", "coordinates": [ -58.4238062, -34.6571705 ] } },
{ "type": "Feature", "properties": { "place_id": "78f65eb9cbecd41fe0e3a71f57335506c42c0333", "name": "Restaurante Chevy", "rating": 4.6, "tipo_1": "bar", "tipo_2": "restaurant", "tipo_3": "food", "categoria": "gastronomia", "cluster": 0 }, "geometry": { "type": "Point", "coordinates": [ -58.3859309, -34.6538303 ] } },
{ "type": "Feature", "properties": { "place_id": "2b9f4552b671dd1de65872390db4a250449f7f69", "name": "El Buen Bouquet", "rating": 4.7, "tipo_1": "bar", "tipo_2": "food", "tipo_3": "point_of_interest", "categoria": "gastronomia", "cluster": 0 }, "geometry": { "type": "Point", "coordinates": [ -58.4343159, -34.6604795 ] } },
{ "type": "Feature", "properties": { "place_id": "3b34c0f4d5357166b029293d9f313470d8db09c1", "name": "Casa De Comida", "rating": 5.0, "tipo_1": "bar", "tipo_2": "point_of_interest", "tipo_3": "establishment", "categoria": "gastronomia", "cluster": 0 }, "geometry": { "type": "Point", "coordinates": [ -58.4404166, -34.6641801 ] } },
{ "type": "Feature", "properties": { "place_id": "c77c38573daa4d54c61b5ae415f4c3af6b0bd9d0", "name": "Bar & Parrilla\"Sol de Mayo\"", "rating": 4.7, "tipo_1": "bar", "tipo_2": "restaurant", "tipo_3": "food", "categoria": "gastronomia", "cluster": 0 }, "geometry": { "type": "Point", "coordinates": [ -58.4386857, -34.6628281 ] } },
{ "type": "Feature", "properties": { "place_id": "12f747bc0bd44ff782d2b20a4209dbf2cb8f1a50", "name": "Snak Bar \" La Peruana\"", "rating": 1.5, "tipo_1": "bar", "tipo_2": "point_of_interest", "tipo_3": "establishment", "categoria": "gastronomia", "cluster": 0 }, "geometry": { "type": "Point", "coordinates": [ -58.439878, -34.65046 ] } },
{ "type": "Feature", "properties": { "place_id": "af881bb0a38b9df9fd2b4839907314ad9dd1629e", "name": "Charly", "rating": null, "tipo_1": "bar", "tipo_2": "point_of_interest", "tipo_3": "establishment", "categoria": "gastronomia", "cluster": 0 }, "geometry": { "type": "Point", "coordinates": [ -58.4700879, -34.6812922 ] } },
{ "type": "Feature", "properties": { "place_id": "64523b2632220a9ca144a7302fced2fe31293a8c", "name": "LA CASONA low flowers", "rating": 2.4, "tipo_1": "bar", "tipo_2": "point_of_interest", "tipo_3": "establishment", "categoria": "gastronomia", "cluster": 0 }, "geometry": { "type": "Point", "coordinates": [ -58.4431995, -34.6478791 ] } },
{ "type": "Feature", "properties": { "place_id": "0cc9d17ee75139f1ddd47b3df6443b51c295252b", "name": "Rincón Urkupiña", "rating": 4.0, "tipo_1": "bar", "tipo_2": "point_of_interest", "tipo_3": "establishment", "categoria": "gastronomia", "cluster": 0 }, "geometry": { "type": "Point", "coordinates": [ -58.4326268, -34.6500774 ] } },
{ "type": "Feature", "properties": { "place_id": "7614e226a140f21501c1754b880d25ee24b04b84", "name": "Casamiento", "rating": null, "tipo_1": "bar", "tipo_2": "point_of_interest", "tipo_3": "establishment", "categoria": "gastronomia", "cluster": 0 }, "geometry": { "type": "Point", "coordinates": [ -58.4744968, -34.677622 ] } },
{ "type": "Feature", "properties": { "place_id": "89cb58800d37f4178b2219a6a997459dfe709e3d", "name": "Wladimiro N", "rating": 3.5, "tipo_1": "bar", "tipo_2": "point_of_interest", "tipo_3": "establishment", "categoria": "gastronomia", "cluster": 0 }, "geometry": { "type": "Point", "coordinates": [ -58.4303246, -34.6493759 ] } },
{ "type": "Feature", "properties": { "place_id": "dcf3c40a2085dac7b89998a0ea02f41fd6a2379e", "name": "Espiche", "rating": 4.3, "tipo_1": "bar", "tipo_2": "restaurant", "tipo_3": "food", "categoria": "gastronomia", "cluster": 3 }, "geometry": { "type": "Point", "coordinates": [ -58.3724004, -34.6207063 ] } },
{ "type": "Feature", "properties": { "place_id": "ea2810e2bba79b06edad10f1799d37b6d789a164", "name": "Saint Elmo", "rating": 4.2, "tipo_1": "bar", "tipo_2": "cafe", "tipo_3": "liquor_store", "categoria": "gastronomia", "cluster": 3 }, "geometry": { "type": "Point", "coordinates": [ -58.374084, -34.620989 ] } },
{ "type": "Feature", "properties": { "place_id": "1959020a84ec1978316491f70177a2e9913903c9", "name": "THE BEER SPOT", "rating": 3.2, "tipo_1": "bar", "tipo_2": "restaurant", "tipo_3": "food", "categoria": "gastronomia", "cluster": 0 }, "geometry": { "type": "Point", "coordinates": [ -58.3652282, -34.6191068 ] } },
{ "type": "Feature", "properties": { "place_id": "f30d88593297d6346a5dc2a51312fbe50226e115", "name": "Alternativa Puerto Madero", "rating": 4.0, "tipo_1": "bar", "tipo_2": "restaurant", "tipo_3": "food", "categoria": "gastronomia", "cluster": 0 }, "geometry": { "type": "Point", "coordinates": [ -58.3648735, -34.6215511 ] } },
{ "type": "Feature", "properties": { "place_id": "a745c4c0aa64630d1ef8b6776163f8607ec44223", "name": "Orsai Bar", "rating": 4.3, "tipo_1": "bar", "tipo_2": "restaurant", "tipo_3": "food", "categoria": "gastronomia", "cluster": 3 }, "geometry": { "type": "Point", "coordinates": [ -58.3724034, -34.6206441 ] } },
{ "type": "Feature", "properties": { "place_id": "ced6a56f674fdcc72043ba79b5618a83611483d4", "name": "Pizzeria Montes de Oca", "rating": 4.0, "tipo_1": "bar", "tipo_2": "restaurant", "tipo_3": "food", "categoria": "gastronomia", "cluster": 0 }, "geometry": { "type": "Point", "coordinates": [ -58.3731266, -34.6454885 ] } },
{ "type": "Feature", "properties": { "place_id": "7572ed912bb1b23729cf74f66c9730c3c025a705", "name": "Moiras", "rating": null, "tipo_1": "bar", "tipo_2": "restaurant", "tipo_3": "food", "categoria": "gastronomia", "cluster": 0 }, "geometry": { "type": "Point", "coordinates": [ -58.366523, -34.618815 ] } },
{ "type": "Feature", "properties": { "place_id": "f1210d9ec69b735750cd7df7c7a2a7ce0397b772", "name": "Café Bar de los Artistas", "rating": 3.8, "tipo_1": "bar", "tipo_2": "point_of_interest", "tipo_3": "establishment", "categoria": "gastronomia", "cluster": 0 }, "geometry": { "type": "Point", "coordinates": [ -58.3635421, -34.6393303 ] } },
{ "type": "Feature", "properties": { "place_id": "f31f27036a2d0de01939f32b3b5d9b2143c15775", "name": "Bar, Galería de Arte \"Mejunjes\"", "rating": 1.0, "tipo_1": "bar", "tipo_2": "point_of_interest", "tipo_3": "establishment", "categoria": "gastronomia", "cluster": 0 }, "geometry": { "type": "Point", "coordinates": [ -58.3633168, -34.6399648 ] } },
{ "type": "Feature", "properties": { "place_id": "82e5a342fb5c243d09e25f82937816eeec4d6274", "name": "El Barquero Bar", "rating": 4.5, "tipo_1": "bar", "tipo_2": "point_of_interest", "tipo_3": "establishment", "categoria": "gastronomia", "cluster": 0 }, "geometry": { "type": "Point", "coordinates": [ -58.3640045, -34.6393286 ] } },
{ "type": "Feature", "properties": { "place_id": "af0b927bc88aa35b6286135def8584facf4cd9e5", "name": "Al Escenario", "rating": 4.4, "tipo_1": "bar", "tipo_2": "restaurant", "tipo_3": "food", "categoria": "gastronomia", "cluster": 0 }, "geometry": { "type": "Point", "coordinates": [ -58.3663176, -34.6396062 ] } },
{ "type": "Feature", "properties": { "place_id": "3cd2400b605cbb8253e703a78c36c9603c8ad830", "name": "Resto bar CAMBALACHE Buenos Aires", "rating": 4.1, "tipo_1": "bar", "tipo_2": "restaurant", "tipo_3": "food", "categoria": "gastronomia", "cluster": 0 }, "geometry": { "type": "Point", "coordinates": [ -58.3693068, -34.6390419 ] } },
{ "type": "Feature", "properties": { "place_id": "c24c98231466ad62b57587be4bf4dbd4173c9b10", "name": "Café Roma", "rating": 4.4, "tipo_1": "bar", "tipo_2": "point_of_interest", "tipo_3": "establishment", "categoria": "gastronomia", "cluster": 0 }, "geometry": { "type": "Point", "coordinates": [ -58.3586099, -34.6361839 ] } },
{ "type": "Feature", "properties": { "place_id": "e8a07ab49591db4a40e7dedb83fc95fcb0f1aa97", "name": "Coffee and Bar Roma", "rating": 4.3, "tipo_1": "cafe", "tipo_2": "bar", "tipo_3": "food", "categoria": "gastronomia", "cluster": 0 }, "geometry": { "type": "Point", "coordinates": [ -58.3586982, -34.6361116 ] } },
{ "type": "Feature", "properties": { "place_id": "af115094706f04176f884ce4837a91e71a7cccbb", "name": "Casa", "rating": null, "tipo_1": "bar", "tipo_2": "point_of_interest", "tipo_3": "establishment", "categoria": "gastronomia", "cluster": 0 }, "geometry": { "type": "Point", "coordinates": [ -58.3706902, -34.6478982 ] } },
{ "type": "Feature", "properties": { "place_id": "f84ae7dff14c833e2aed6803276b996ef7d4bf71", "name": "Bar Portuario", "rating": null, "tipo_1": "bar", "tipo_2": "point_of_interest", "tipo_3": "establishment", "categoria": "gastronomia", "cluster": 0 }, "geometry": { "type": "Point", "coordinates": [ -58.3631337, -34.6344961 ] } },
{ "type": "Feature", "properties": { "place_id": "b6634f99a7b5503f72eaaab226dd6d8908b62e03", "name": "Moreno Maria L J", "rating": null, "tipo_1": "bar", "tipo_2": "point_of_interest", "tipo_3": "establishment", "categoria": "gastronomia", "cluster": 0 }, "geometry": { "type": "Point", "coordinates": [ -58.3728993, -34.6466795 ] } },
{ "type": "Feature", "properties": { "place_id": "98dc7150378d003eaadc0a667ab656d49ae43229", "name": "El Puente de Ariel", "rating": 4.2, "tipo_1": "bar", "tipo_2": "restaurant", "tipo_3": "food", "categoria": "gastronomia", "cluster": 0 }, "geometry": { "type": "Point", "coordinates": [ -58.35973, -34.634259 ] } },
{ "type": "Feature", "properties": { "place_id": "61e84ab89cb950d4fae9cd6199790e90fe410d35", "name": "Bar Tolo", "rating": 4.5, "tipo_1": "bar", "tipo_2": "restaurant", "tipo_3": "food", "categoria": "gastronomia", "cluster": 0 }, "geometry": { "type": "Point", "coordinates": [ -58.378237, -34.625787 ] } },
{ "type": "Feature", "properties": { "place_id": "a2763ac7ac43b2886a781120bb5cd512a21c7925", "name": "Babieca Parrilla", "rating": 4.1, "tipo_1": "bar", "tipo_2": "restaurant", "tipo_3": "food", "categoria": "gastronomia", "cluster": 0 }, "geometry": { "type": "Point", "coordinates": [ -58.372529, -34.625585 ] } },
{ "type": "Feature", "properties": { "place_id": "c24d21a0418095fc9a9a75bcbb3360cc33999830", "name": "Doppelganger Bar", "rating": 4.5, "tipo_1": "bar", "tipo_2": "restaurant", "tipo_3": "food", "categoria": "gastronomia", "cluster": 0 }, "geometry": { "type": "Point", "coordinates": [ -58.3726109, -34.6244297 ] } },
{ "type": "Feature", "properties": { "place_id": "a2de910eff3b69b0369fe52bc6ae3dfd5001e4c4", "name": "O' Xantar", "rating": 4.6, "tipo_1": "bar", "tipo_2": "restaurant", "tipo_3": "food", "categoria": "gastronomia", "cluster": 0 }, "geometry": { "type": "Point", "coordinates": [ -58.371256, -34.6239214 ] } },
{ "type": "Feature", "properties": { "place_id": "93f8dadeb0bca555c4bcb727fa3f4e332df8d1b8", "name": "Volks Bier Bar", "rating": 4.2, "tipo_1": "bar", "tipo_2": "restaurant", "tipo_3": "food", "categoria": "gastronomia", "cluster": 0 }, "geometry": { "type": "Point", "coordinates": [ -58.3775286, -34.6256843 ] } },
{ "type": "Feature", "properties": { "place_id": "3a0756b6db0c4b533b1c17cb262bce8d547b7e2f", "name": "Chupi Chupi Bar", "rating": 3.8, "tipo_1": "bar", "tipo_2": "point_of_interest", "tipo_3": "establishment", "categoria": "gastronomia", "cluster": 0 }, "geometry": { "type": "Point", "coordinates": [ -58.3827364, -34.6289629 ] } },
{ "type": "Feature", "properties": { "place_id": "c967cedf3df6b2a60659460ac4eae8b9fc53f37c", "name": "Vinoteca & Bar de Vinos Orsogna", "rating": 4.2, "tipo_1": "bar", "tipo_2": "liquor_store", "tipo_3": "food", "categoria": "gastronomia", "cluster": 3 }, "geometry": { "type": "Point", "coordinates": [ -58.3714596, -34.6215199 ] } },
{ "type": "Feature", "properties": { "place_id": "4710830d24b8fccfacc95b0e28322697c8304671", "name": "Bar Británico", "rating": 4.2, "tipo_1": "bar", "tipo_2": "cafe", "tipo_3": "meal_takeaway", "categoria": "gastronomia", "cluster": 0 }, "geometry": { "type": "Point", "coordinates": [ -58.3710431, -34.6252274 ] } },
{ "type": "Feature", "properties": { "place_id": "372896490fab3390112b7f6178b1cda0771d8318", "name": "Dorrego Café", "rating": 3.8, "tipo_1": "bar", "tipo_2": "cafe", "tipo_3": "food", "categoria": "gastronomia", "cluster": 3 }, "geometry": { "type": "Point", "coordinates": [ -58.3713087, -34.6205706 ] } },
{ "type": "Feature", "properties": { "place_id": "588ca2393f7e21e0a5d5992dd397808444a1e5ec", "name": "Bar El Progreso", "rating": 4.0, "tipo_1": "bar", "tipo_2": "cafe", "tipo_3": "restaurant", "categoria": "gastronomia", "cluster": 0 }, "geometry": { "type": "Point", "coordinates": [ -58.372823, -34.646766 ] } },
{ "type": "Feature", "properties": { "place_id": "83b8d0879b65e5c1db377b0da89806c8c03b7b60", "name": "EL REMANSO", "rating": 4.2, "tipo_1": "cafe", "tipo_2": "bar", "tipo_3": "restaurant", "categoria": "gastronomia", "cluster": 0 }, "geometry": { "type": "Point", "coordinates": [ -58.3714996, -34.6309013 ] } },
{ "type": "Feature", "properties": { "place_id": "b93cfe4644ad72f5d7edc83fdb235d3193cfe55c", "name": "Bar El Estaño 1880", "rating": 4.2, "tipo_1": "bar", "tipo_2": "point_of_interest", "tipo_3": "establishment", "categoria": "gastronomia", "cluster": 0 }, "geometry": { "type": "Point", "coordinates": [ -58.36832, -34.63539 ] } },
{ "type": "Feature", "properties": { "place_id": "7fceca7265ed32ea6b0418fc9464a430f6f00627", "name": "Vinetto", "rating": 4.8, "tipo_1": "bar", "tipo_2": "food", "tipo_3": "point_of_interest", "categoria": "gastronomia", "cluster": 0 }, "geometry": { "type": "Point", "coordinates": [ -58.374646, -34.6393179 ] } },
{ "type": "Feature", "properties": { "place_id": "9d4eb87fb05f38835e2fbadbc7195619ec36345a", "name": "ALTOS DE LA BOCA", "rating": 3.9, "tipo_1": "bar", "tipo_2": "restaurant", "tipo_3": "food", "categoria": "gastronomia", "cluster": 0 }, "geometry": { "type": "Point", "coordinates": [ -58.3596811, -34.6314297 ] } },
{ "type": "Feature", "properties": { "place_id": "951c75b81bad9383408d38f7642bc85b79e0d4de", "name": "Todo Moda", "rating": null, "tipo_1": "bar", "tipo_2": "point_of_interest", "tipo_3": "establishment", "categoria": "gastronomia", "cluster": 0 }, "geometry": { "type": "Point", "coordinates": [ -58.3811495, -34.6523753 ] } },
{ "type": "Feature", "properties": { "place_id": "86853667383df492f10a78ccdec8fbdf7989b3ec", "name": "La Bartola de Barracas", "rating": 4.1, "tipo_1": "cafe", "tipo_2": "bar", "tipo_3": "restaurant", "categoria": "gastronomia", "cluster": 0 }, "geometry": { "type": "Point", "coordinates": [ -58.3811639, -34.653546 ] } },
{ "type": "Feature", "properties": { "place_id": "97073d41966e87612744526c3ed3ec98f1cc3a37", "name": "El Buen Gusto", "rating": 4.7, "tipo_1": "bar", "tipo_2": "point_of_interest", "tipo_3": "establishment", "categoria": "gastronomia", "cluster": 0 }, "geometry": { "type": "Point", "coordinates": [ -58.3843, -34.6481756 ] } },
{ "type": "Feature", "properties": { "place_id": "d0df762ec3127818bd6ad4e44e03470c22442e81", "name": "Lo de Cacho", "rating": null, "tipo_1": "bar", "tipo_2": "point_of_interest", "tipo_3": "establishment", "categoria": "gastronomia", "cluster": 0 }, "geometry": { "type": "Point", "coordinates": [ -58.3785186, -34.6410618 ] } },
{ "type": "Feature", "properties": { "place_id": "eb632282eb14fae17e3cb88e60885d92b9a843de", "name": "168 Bar", "rating": 5.0, "tipo_1": "bar", "tipo_2": "point_of_interest", "tipo_3": "establishment", "categoria": "gastronomia", "cluster": 0 }, "geometry": { "type": "Point", "coordinates": [ -58.378994, -34.640684 ] } },
{ "type": "Feature", "properties": { "place_id": "c6c7bae7e5952d5aff8604d88ddf21c1dd571c3c", "name": "Subway Montes De Oca", "rating": 4.0, "tipo_1": "bar", "tipo_2": "point_of_interest", "tipo_3": "establishment", "categoria": "gastronomia", "cluster": 0 }, "geometry": { "type": "Point", "coordinates": [ -58.3744312, -34.6382365 ] } },
{ "type": "Feature", "properties": { "place_id": "726c89a333b4412f941e690bfc88cab6656854ae", "name": "La Boutique del Queso VINOTECA", "rating": 4.3, "tipo_1": "bar", "tipo_2": "food", "tipo_3": "store", "categoria": "gastronomia", "cluster": 0 }, "geometry": { "type": "Point", "coordinates": [ -58.374549, -34.638047 ] } },
{ "type": "Feature", "properties": { "place_id": "e41995fc86d1066e97303d6e1e492845c88952d8", "name": "Cantina de Gennarino", "rating": null, "tipo_1": "bar", "tipo_2": "point_of_interest", "tipo_3": "establishment", "categoria": "gastronomia", "cluster": 0 }, "geometry": { "type": "Point", "coordinates": [ -58.3574544, -34.6348511 ] } },
{ "type": "Feature", "properties": { "place_id": "027368b5a2e4fa6f3813be5a1b2ca19979008bb6", "name": "Radio Bar", "rating": 4.4, "tipo_1": "bar", "tipo_2": "point_of_interest", "tipo_3": "establishment", "categoria": "gastronomia", "cluster": 0 }, "geometry": { "type": "Point", "coordinates": [ -58.356435, -34.6301655 ] } },
{ "type": "Feature", "properties": { "place_id": "ad97e38263570718068432d280510735626ff9e5", "name": "Bohemios", "rating": null, "tipo_1": "bar", "tipo_2": "point_of_interest", "tipo_3": "establishment", "categoria": "gastronomia", "cluster": 0 }, "geometry": { "type": "Point", "coordinates": [ -58.3576701, -34.6324666 ] } },
{ "type": "Feature", "properties": { "place_id": "a3a1415cdc6c80215f978dc034ee61e6311234af", "name": "Café-bar", "rating": 4.5, "tipo_1": "bar", "tipo_2": "point_of_interest", "tipo_3": "establishment", "categoria": "gastronomia", "cluster": 0 }, "geometry": { "type": "Point", "coordinates": [ -58.3698658, -34.6357999 ] } },
{ "type": "Feature", "properties": { "place_id": "974591717c2fb4b6b41b401c14c3f67bb3a1e338", "name": "Bar Argerich", "rating": 4.0, "tipo_1": "bar", "tipo_2": "point_of_interest", "tipo_3": "establishment", "categoria": "gastronomia", "cluster": 0 }, "geometry": { "type": "Point", "coordinates": [ -58.366602, -34.6280558 ] } },
{ "type": "Feature", "properties": { "place_id": "7883c4081cd47cf69cceaed5c93ffe4cc998de47", "name": "Las Medialunas del Abuelo", "rating": 3.2, "tipo_1": "bar", "tipo_2": "point_of_interest", "tipo_3": "establishment", "categoria": "gastronomia", "cluster": 0 }, "geometry": { "type": "Point", "coordinates": [ -58.3660534, -34.627557 ] } },
{ "type": "Feature", "properties": { "place_id": "b4e2a87e2ae538753d5d70cd7f767ab15e4a264a", "name": "parrilla Hasta El Huesito \"Lo de moya\"", "rating": 4.1, "tipo_1": "bar", "tipo_2": "restaurant", "tipo_3": "food", "categoria": "gastronomia", "cluster": 0 }, "geometry": { "type": "Point", "coordinates": [ -58.3668347, -34.6277713 ] } },
{ "type": "Feature", "properties": { "place_id": "83b4f1cb767d39d300a2b6e459bc608219d92f3b", "name": "Bar Paris", "rating": 4.3, "tipo_1": "bar", "tipo_2": "point_of_interest", "tipo_3": "establishment", "categoria": "gastronomia", "cluster": 0 }, "geometry": { "type": "Point", "coordinates": [ -58.3603857, -34.6325232 ] } },
{ "type": "Feature", "properties": { "place_id": "964e3b17d8ae7ad7697e18cf63af4fef192b2c33", "name": "Bar nuevo paris", "rating": 3.0, "tipo_1": "bar", "tipo_2": "point_of_interest", "tipo_3": "establishment", "categoria": "gastronomia", "cluster": 0 }, "geometry": { "type": "Point", "coordinates": [ -58.3603646, -34.6325243 ] } },
{ "type": "Feature", "properties": { "place_id": "66e5a2854256696bcacee655a9a11a44918ab6d9", "name": "CB", "rating": null, "tipo_1": "bar", "tipo_2": "point_of_interest", "tipo_3": "establishment", "categoria": "gastronomia", "cluster": 0 }, "geometry": { "type": "Point", "coordinates": [ -58.3593914, -34.6323627 ] } },
{ "type": "Feature", "properties": { "place_id": "0134736e2a2cd5fd37d7505e1223bf3833f92fed", "name": "Boca a Boca", "rating": 3.9, "tipo_1": "bar", "tipo_2": "point_of_interest", "tipo_3": "establishment", "categoria": "gastronomia", "cluster": 0 }, "geometry": { "type": "Point", "coordinates": [ -58.3594487, -34.6301955 ] } },
{ "type": "Feature", "properties": { "place_id": "30e7b5bf1edf92ecc8b9e40b09209ff15e081773", "name": "Bar Restaurant El Encuentro", "rating": null, "tipo_1": "bar", "tipo_2": "restaurant", "tipo_3": "food", "categoria": "gastronomia", "cluster": 0 }, "geometry": { "type": "Point", "coordinates": [ -58.3781909, -34.627612 ] } },
{ "type": "Feature", "properties": { "place_id": "02c228cc4814a349be22eca15bc700e4d46e8230", "name": "Bar-Comidas", "rating": null, "tipo_1": "bar", "tipo_2": "point_of_interest", "tipo_3": "establishment", "categoria": "gastronomia", "cluster": 0 }, "geometry": { "type": "Point", "coordinates": [ -58.382833, -34.6298457 ] } },
{ "type": "Feature", "properties": { "place_id": "7f555e9e4371e53c6889595a8a3deeb59109654a", "name": "Estación Quilmes Bar", "rating": null, "tipo_1": "bar", "tipo_2": "point_of_interest", "tipo_3": "establishment", "categoria": "gastronomia", "cluster": 0 }, "geometry": { "type": "Point", "coordinates": [ -58.3818108, -34.62893 ] } },
{ "type": "Feature", "properties": { "place_id": "f3537ccd94fb698e45da85918feae02cc0d8b0d9", "name": "Bar Hamburguesas", "rating": null, "tipo_1": "bar", "tipo_2": "point_of_interest", "tipo_3": "establishment", "categoria": "gastronomia", "cluster": 0 }, "geometry": { "type": "Point", "coordinates": [ -58.3828375, -34.6291451 ] } },
{ "type": "Feature", "properties": { "place_id": "87fb50820b670ed445ef54d563ef2b0da11f4788", "name": "bar Victoria", "rating": null, "tipo_1": "bar", "tipo_2": "point_of_interest", "tipo_3": "establishment", "categoria": "gastronomia", "cluster": 0 }, "geometry": { "type": "Point", "coordinates": [ -58.3831234, -34.6290009 ] } },
{ "type": "Feature", "properties": { "place_id": "4944315a47c08eed18bf809d2513215d4e263f85", "name": "Carlos", "rating": null, "tipo_1": "bar", "tipo_2": "point_of_interest", "tipo_3": "establishment", "categoria": "gastronomia", "cluster": 0 }, "geometry": { "type": "Point", "coordinates": [ -58.377016, -34.6264901 ] } },
{ "type": "Feature", "properties": { "place_id": "80758a42a2fc35a6486d32ba4a0c14c20babe633", "name": "On Tap Cervecería", "rating": 3.8, "tipo_1": "bar", "tipo_2": "restaurant", "tipo_3": "food", "categoria": "gastronomia", "cluster": 0 }, "geometry": { "type": "Point", "coordinates": [ -58.3722695, -34.626894 ] } },
{ "type": "Feature", "properties": { "place_id": "f70c27facbab8db09212adf6bacbf5753e297374", "name": "Bar", "rating": 4.0, "tipo_1": "bar", "tipo_2": "point_of_interest", "tipo_3": "establishment", "categoria": "gastronomia", "cluster": 0 }, "geometry": { "type": "Point", "coordinates": [ -58.3825183, -34.6279952 ] } },
{ "type": "Feature", "properties": { "place_id": "9e093f502e03db8d6d90c426db5a91008202e1e2", "name": "El Bar Del Kiosco", "rating": null, "tipo_1": "bar", "tipo_2": "point_of_interest", "tipo_3": "establishment", "categoria": "gastronomia", "cluster": 0 }, "geometry": { "type": "Point", "coordinates": [ -58.3827714, -34.6281471 ] } },
{ "type": "Feature", "properties": { "place_id": "b88680ebc0cfe20e4d09ef5bc2c7ee119a32569e", "name": "Patio Cervecero de Luisito", "rating": null, "tipo_1": "bar", "tipo_2": "point_of_interest", "tipo_3": "establishment", "categoria": "gastronomia", "cluster": 0 }, "geometry": { "type": "Point", "coordinates": [ -58.3755983, -34.6331803 ] } },
{ "type": "Feature", "properties": { "place_id": "34523cc2df4c2e9fd479be0250ee6558571412c7", "name": "Ñabiky Bar", "rating": null, "tipo_1": "bar", "tipo_2": "point_of_interest", "tipo_3": "establishment", "categoria": "gastronomia", "cluster": 0 }, "geometry": { "type": "Point", "coordinates": [ -58.3758171, -34.6319243 ] } },
{ "type": "Feature", "properties": { "place_id": "1e35580ee6c4f29a949be93849d899ad6c86b86d", "name": "Drink Wine Store Argentina", "rating": 4.3, "tipo_1": "bar", "tipo_2": "food", "tipo_3": "point_of_interest", "categoria": "gastronomia", "cluster": 0 }, "geometry": { "type": "Point", "coordinates": [ -58.3795249, -34.6322201 ] } },
{ "type": "Feature", "properties": { "place_id": "dc27f203fcf2bc2f7874c18294182a06013de8ef", "name": "Bargley", "rating": null, "tipo_1": "bar", "tipo_2": "restaurant", "tipo_3": "food", "categoria": "gastronomia", "cluster": 0 }, "geometry": { "type": "Point", "coordinates": [ -58.3777176, -34.6309725 ] } },
{ "type": "Feature", "properties": { "place_id": "a90b65a017bf7fbf7e1586ae2d14fde1e7136975", "name": "Cafe Bar Dani", "rating": null, "tipo_1": "cafe", "tipo_2": "bar", "tipo_3": "food", "categoria": "gastronomia", "cluster": 0 }, "geometry": { "type": "Point", "coordinates": [ -58.3819856, -34.6357393 ] } },
{ "type": "Feature", "properties": { "place_id": "575efd0e9b6fd19be244005e69f3c3d1d38e5ec2", "name": "Don Rolo", "rating": 3.8, "tipo_1": "bar", "tipo_2": "cafe", "tipo_3": "food", "categoria": "gastronomia", "cluster": 0 }, "geometry": { "type": "Point", "coordinates": [ -58.3825208, -34.6309449 ] } },
{ "type": "Feature", "properties": { "place_id": "297e0d200ea2f02e9fb602bae6d9c19b7e518f7a", "name": "\"Paseo De Julio\" Restaurant Pizza", "rating": 4.2, "tipo_1": "bar", "tipo_2": "restaurant", "tipo_3": "food", "categoria": "gastronomia", "cluster": 0 }, "geometry": { "type": "Point", "coordinates": [ -58.377919, -34.628318 ] } },
{ "type": "Feature", "properties": { "place_id": "9310a2824ce7b5feb8d3f72e4d36c759877dc616", "name": "El Recreo", "rating": 3.5, "tipo_1": "bar", "tipo_2": "point_of_interest", "tipo_3": "establishment", "categoria": "gastronomia", "cluster": 0 }, "geometry": { "type": "Point", "coordinates": [ -58.37342, -34.6283129 ] } },
{ "type": "Feature", "properties": { "place_id": "89495dc664a43dcc128abd50653f5f042ff5fbb6", "name": "Vieyra Manuel", "rating": 3.0, "tipo_1": "bar", "tipo_2": "point_of_interest", "tipo_3": "establishment", "categoria": "gastronomia", "cluster": 0 }, "geometry": { "type": "Point", "coordinates": [ -58.3815176, -34.6291481 ] } },
{ "type": "Feature", "properties": { "place_id": "2fd8f255656be8bf59bbc26d6f7cd24637b712db", "name": "La Birra", "rating": 4.7, "tipo_1": "bar", "tipo_2": "cafe", "tipo_3": "restaurant", "categoria": "gastronomia", "cluster": 0 }, "geometry": { "type": "Point", "coordinates": [ -58.4260722, -34.6267417 ] } },
{ "type": "Feature", "properties": { "place_id": "8059958b641b7e82b9ec7631657c2e0e4926c281", "name": "Mamma Silvia", "rating": 4.4, "tipo_1": "bar", "tipo_2": "restaurant", "tipo_3": "food", "categoria": "gastronomia", "cluster": 0 }, "geometry": { "type": "Point", "coordinates": [ -58.423971, -34.637872 ] } },
{ "type": "Feature", "properties": { "place_id": "b2a5304fa7c0ec1b69b60869bcfde311ed9afb92", "name": "Ruta 40 cerveceria", "rating": 4.5, "tipo_1": "bar", "tipo_2": "restaurant", "tipo_3": "food", "categoria": "gastronomia", "cluster": 0 }, "geometry": { "type": "Point", "coordinates": [ -58.406054, -34.64229 ] } },
{ "type": "Feature", "properties": { "place_id": "84d8e26c8bd3daf1a51386a6f787cc2e4b764f21", "name": "Marula", "rating": 3.6, "tipo_1": "bar", "tipo_2": "point_of_interest", "tipo_3": "establishment", "categoria": "gastronomia", "cluster": 0 }, "geometry": { "type": "Point", "coordinates": [ -58.4036546, -34.6380813 ] } },
{ "type": "Feature", "properties": { "place_id": "f25e99bd50fdcb22b12e7301a480cf817e1e1fda", "name": "Estación Patricios", "rating": 4.8, "tipo_1": "bar", "tipo_2": "restaurant", "tipo_3": "food", "categoria": "gastronomia", "cluster": 0 }, "geometry": { "type": "Point", "coordinates": [ -58.404915, -34.638019 ] } },
{ "type": "Feature", "properties": { "place_id": "80a18e8cbce1983549bdf762424ee383da8808e6", "name": "Rodriguez Maria E", "rating": 5.0, "tipo_1": "bar", "tipo_2": "point_of_interest", "tipo_3": "establishment", "categoria": "gastronomia", "cluster": 0 }, "geometry": { "type": "Point", "coordinates": [ -58.4087616, -34.6395753 ] } },
{ "type": "Feature", "properties": { "place_id": "5f769214822ddbb7543fa7aa055b333ac3cea9c8", "name": "Drinks store \"The Collector\"", "rating": 4.2, "tipo_1": "bar", "tipo_2": "food", "tipo_3": "point_of_interest", "categoria": "gastronomia", "cluster": 0 }, "geometry": { "type": "Point", "coordinates": [ -58.403247, -34.636812 ] } },
{ "type": "Feature", "properties": { "place_id": "2cd685eb89b73751e96a888468e55d87979bb342", "name": "Las Familias", "rating": 3.4, "tipo_1": "bar", "tipo_2": "cafe", "tipo_3": "food", "categoria": "gastronomia", "cluster": 0 }, "geometry": { "type": "Point", "coordinates": [ -58.4022586, -34.6366373 ] } },
{ "type": "Feature", "properties": { "place_id": "3eb0a0fb8f61eba174b952a6f8964df93e85cdb7", "name": "Assembly and Emilio Mitre", "rating": 3.0, "tipo_1": "bar", "tipo_2": "point_of_interest", "tipo_3": "establishment", "categoria": "gastronomia", "cluster": 0 }, "geometry": { "type": "Point", "coordinates": [ -58.4130482, -34.6425732 ] } },
{ "type": "Feature", "properties": { "place_id": "6301fd4fd77817622efe01a8644325004039d754", "name": "Confiteria Luna", "rating": 4.0, "tipo_1": "bar", "tipo_2": "point_of_interest", "tipo_3": "establishment", "categoria": "gastronomia", "cluster": 0 }, "geometry": { "type": "Point", "coordinates": [ -58.4006177, -34.6363765 ] } },
{ "type": "Feature", "properties": { "place_id": "c61c124e021d2fdb88a1723a3266eba8f886e4e2", "name": "DON ALFDREDO PARRILLA", "rating": 3.2, "tipo_1": "bar", "tipo_2": "restaurant", "tipo_3": "food", "categoria": "gastronomia", "cluster": 0 }, "geometry": { "type": "Point", "coordinates": [ -58.412095, -34.639417 ] } },
{ "type": "Feature", "properties": { "place_id": "f9d9f6eb2ba35b1e990a01720f0825b7cfa3c085", "name": "El Nuevo Refugio", "rating": 4.1, "tipo_1": "cafe", "tipo_2": "bar", "tipo_3": "food", "categoria": "gastronomia", "cluster": 0 }, "geometry": { "type": "Point", "coordinates": [ -58.400288, -34.6362249 ] } },
{ "type": "Feature", "properties": { "place_id": "5f7d59384b176d28069a2b7885abcbafd2d06803", "name": "Carpe Diem", "rating": 1.0, "tipo_1": "bar", "tipo_2": "point_of_interest", "tipo_3": "establishment", "categoria": "gastronomia", "cluster": 0 }, "geometry": { "type": "Point", "coordinates": [ -58.4061678, -34.6351904 ] } },
{ "type": "Feature", "properties": { "place_id": "1173643d86e69d1e829a2f7af0c9bb28a5bc2d1a", "name": "Bar El Jarrito", "rating": 4.2, "tipo_1": "bar", "tipo_2": "point_of_interest", "tipo_3": "establishment", "categoria": "gastronomia", "cluster": 0 }, "geometry": { "type": "Point", "coordinates": [ -58.4151968, -34.6473107 ] } },
{ "type": "Feature", "properties": { "place_id": "ab34f83cba23005d61e7f85d772f52cbeaa4db90", "name": "Resto juanita", "rating": 4.2, "tipo_1": "bar", "tipo_2": "restaurant", "tipo_3": "food", "categoria": "gastronomia", "cluster": 0 }, "geometry": { "type": "Point", "coordinates": [ -58.416421, -34.646052 ] } },
{ "type": "Feature", "properties": { "place_id": "13839ad682d6119ef9905edb0892d4f75f3598fe", "name": "Café Margot", "rating": 4.1, "tipo_1": "cafe", "tipo_2": "bar", "tipo_3": "food", "categoria": "gastronomia", "cluster": 0 }, "geometry": { "type": "Point", "coordinates": [ -58.4164598, -34.623315 ] } },
{ "type": "Feature", "properties": { "place_id": "03f412542aa57c599c7cc6d2d33468feab5e880f", "name": "Resto Bar Goyo", "rating": 3.0, "tipo_1": "bar", "tipo_2": "point_of_interest", "tipo_3": "establishment", "categoria": "gastronomia", "cluster": 0 }, "geometry": { "type": "Point", "coordinates": [ -58.4254282, -34.6336051 ] } },
{ "type": "Feature", "properties": { "place_id": "3f375dc2be9e141da38cb620666bf7c01bda5ca5", "name": "Vitrola Jams", "rating": 4.8, "tipo_1": "bar", "tipo_2": "night_club", "tipo_3": "point_of_interest", "categoria": "gastronomia", "cluster": 0 }, "geometry": { "type": "Point", "coordinates": [ -58.3993014, -34.6234073 ] } },
{ "type": "Feature", "properties": { "place_id": "8f67ab82e8524a2fb7d579f0316caec856d33d6f", "name": "Bonafide", "rating": 3.7, "tipo_1": "cafe", "tipo_2": "bar", "tipo_3": "food", "categoria": "gastronomia", "cluster": 0 }, "geometry": { "type": "Point", "coordinates": [ -58.4159126, -34.6239243 ] } },
{ "type": "Feature", "properties": { "place_id": "d628328db9cc06bc4899970b42e9369ae9219369", "name": "Cafe La Humedad", "rating": 4.1, "tipo_1": "bar", "tipo_2": "restaurant", "tipo_3": "food", "categoria": "gastronomia", "cluster": 0 }, "geometry": { "type": "Point", "coordinates": [ -58.4011897, -34.6210976 ] } },
{ "type": "Feature", "properties": { "place_id": "12092fc1ceaaa76acef208ece90f4696e49a5d33", "name": "Nivangio", "rating": 4.0, "tipo_1": "bar", "tipo_2": "point_of_interest", "tipo_3": "establishment", "categoria": "gastronomia", "cluster": 0 }, "geometry": { "type": "Point", "coordinates": [ -58.4176296, -34.6248733 ] } },
{ "type": "Feature", "properties": { "place_id": "12cfdbeb9f0eceeef0991fd9f0d4802439266223", "name": "Esquina Vernet", "rating": 4.6, "tipo_1": "bar", "tipo_2": "restaurant", "tipo_3": "food", "categoria": "gastronomia", "cluster": 0 }, "geometry": { "type": "Point", "coordinates": [ -58.4271056, -34.6324915 ] } },
{ "type": "Feature", "properties": { "place_id": "c2f57b5c030d5cb2e571b7ed772003b92cd9440e", "name": "Fratello's", "rating": 3.9, "tipo_1": "bar", "tipo_2": "restaurant", "tipo_3": "food", "categoria": "gastronomia", "cluster": 0 }, "geometry": { "type": "Point", "coordinates": [ -58.4030804, -34.6210657 ] } },
{ "type": "Feature", "properties": { "place_id": "b9b41052173beb34bdc48876de102dbdf7d27dbe", "name": "Café Bonafide", "rating": 4.0, "tipo_1": "bar", "tipo_2": "point_of_interest", "tipo_3": "establishment", "categoria": "gastronomia", "cluster": 0 }, "geometry": { "type": "Point", "coordinates": [ -58.4204058, -34.6258761 ] } },
{ "type": "Feature", "properties": { "place_id": "0e803d70b9d0ec8238b66189f862b2d90a35de31", "name": "Cervecería The Prancing Pony", "rating": 4.5, "tipo_1": "bar", "tipo_2": "restaurant", "tipo_3": "food", "categoria": "gastronomia", "cluster": 0 }, "geometry": { "type": "Point", "coordinates": [ -58.4184444, -34.6244498 ] } },
{ "type": "Feature", "properties": { "place_id": "0563d2d74bf2af41f20a238a03f9ecbf55021508", "name": "La Roka Beer Bar", "rating": 3.9, "tipo_1": "bar", "tipo_2": "restaurant", "tipo_3": "food", "categoria": "gastronomia", "cluster": 0 }, "geometry": { "type": "Point", "coordinates": [ -58.416428, -34.623454 ] } },
{ "type": "Feature", "properties": { "place_id": "3310afd06a6c7c80e291270918b3d6749f7de203", "name": "Santa Lucía", "rating": 4.2, "tipo_1": "bar", "tipo_2": "restaurant", "tipo_3": "food", "categoria": "gastronomia", "cluster": 0 }, "geometry": { "type": "Point", "coordinates": [ -58.392818, -34.622684 ] } },
{ "type": "Feature", "properties": { "place_id": "9d950b504e262c0a525af42d3a6ba8c00dfe0b08", "name": "xoxo fiestas", "rating": 2.0, "tipo_1": "bar", "tipo_2": "point_of_interest", "tipo_3": "establishment", "categoria": "gastronomia", "cluster": 0 }, "geometry": { "type": "Point", "coordinates": [ -58.424129, -34.625874 ] } },
{ "type": "Feature", "properties": { "place_id": "c4a6619bb89961fed93a2e55ccda5193b225275a", "name": "Los Amigos", "rating": 3.5, "tipo_1": "bar", "tipo_2": "restaurant", "tipo_3": "food", "categoria": "gastronomia", "cluster": 0 }, "geometry": { "type": "Point", "coordinates": [ -58.419613, -34.6292369 ] } },
{ "type": "Feature", "properties": { "place_id": "47b87bd031d5eed7540ebcbe197cd6ff2af47c41", "name": "La taberna de ricardo", "rating": 2.7, "tipo_1": "bar", "tipo_2": "restaurant", "tipo_3": "food", "categoria": "gastronomia", "cluster": 0 }, "geometry": { "type": "Point", "coordinates": [ -58.4051422, -34.6371569 ] } },
{ "type": "Feature", "properties": { "place_id": "2f205857cb21cf9d559cecfa3d971ff242a41cbd", "name": "Betarraga", "rating": 4.0, "tipo_1": "bar", "tipo_2": "restaurant", "tipo_3": "food", "categoria": "gastronomia", "cluster": 0 }, "geometry": { "type": "Point", "coordinates": [ -58.4038943, -34.6381169 ] } },
{ "type": "Feature", "properties": { "place_id": "00f78e4fcc315ccb1cdf0d90bd54c4c4d71d8faf", "name": "Estudio Juridico Dr Barraza Pedro Osvaldo", "rating": 4.5, "tipo_1": "bar", "tipo_2": "point_of_interest", "tipo_3": "establishment", "categoria": "gastronomia", "cluster": 0 }, "geometry": { "type": "Point", "coordinates": [ -58.413111, -34.6435372 ] } },
{ "type": "Feature", "properties": { "place_id": "1de052f8d9cb7b639450630b70bf14551f3fe222", "name": "El Codo Sandwich-Picadas", "rating": 4.0, "tipo_1": "bar", "tipo_2": "restaurant", "tipo_3": "food", "categoria": "gastronomia", "cluster": 0 }, "geometry": { "type": "Point", "coordinates": [ -58.4089422, -34.6370744 ] } },
{ "type": "Feature", "properties": { "place_id": "3f56d4c98a7844c789b5be944e3958e693ff9f98", "name": "CHAPEAUX", "rating": 4.2, "tipo_1": "bar", "tipo_2": "restaurant", "tipo_3": "food", "categoria": "gastronomia", "cluster": 0 }, "geometry": { "type": "Point", "coordinates": [ -58.4136082, -34.6383276 ] } },
{ "type": "Feature", "properties": { "place_id": "b47dca0044c646a8973413ae6b053342455cb26c", "name": "Luna Morena (Disco)", "rating": 4.0, "tipo_1": "bar", "tipo_2": "point_of_interest", "tipo_3": "establishment", "categoria": "gastronomia", "cluster": 0 }, "geometry": { "type": "Point", "coordinates": [ -58.4206231, -34.6411136 ] } },
{ "type": "Feature", "properties": { "place_id": "9e9ed7c8616f8243f1879429d22f0cacf629dd91", "name": "Beer Pub BierWelt", "rating": 4.2, "tipo_1": "bar", "tipo_2": "point_of_interest", "tipo_3": "establishment", "categoria": "gastronomia", "cluster": 0 }, "geometry": { "type": "Point", "coordinates": [ -58.4159971, -34.6327233 ] } },
{ "type": "Feature", "properties": { "place_id": "d6c49be48250b60bbf6b99aa1c9f07e0f4b325eb", "name": "Bierwelt - Cervecería Artesanal", "rating": 4.1, "tipo_1": "bar", "tipo_2": "restaurant", "tipo_3": "food", "categoria": "gastronomia", "cluster": 0 }, "geometry": { "type": "Point", "coordinates": [ -58.4158589, -34.6326148 ] } },
{ "type": "Feature", "properties": { "place_id": "a4f385c56058262c92f4b1362a0e3f77b10c9128", "name": "Vinería Divina Cosecha", "rating": 3.9, "tipo_1": "bar", "tipo_2": "liquor_store", "tipo_3": "food", "categoria": "gastronomia", "cluster": 0 }, "geometry": { "type": "Point", "coordinates": [ -58.4210155, -34.6357347 ] } },
{ "type": "Feature", "properties": { "place_id": "9fac4abc96ff9eb17a86333bf4ace124309d8f8e", "name": "Ñuke Mapu SRL", "rating": 3.0, "tipo_1": "bar", "tipo_2": "food", "tipo_3": "point_of_interest", "categoria": "gastronomia", "cluster": 0 }, "geometry": { "type": "Point", "coordinates": [ -58.4200197, -34.6307758 ] } },
{ "type": "Feature", "properties": { "place_id": "92e779f5ccc63ef9ef371b87d1832ec1db226337", "name": "Amigos.com Bar", "rating": 3.9, "tipo_1": "bar", "tipo_2": "cafe", "tipo_3": "food", "categoria": "gastronomia", "cluster": 0 }, "geometry": { "type": "Point", "coordinates": [ -58.40411, -34.625714 ] } },
{ "type": "Feature", "properties": { "place_id": "9ef53bebb9b9c9edd7ceb0421f23d55bbfc943b7", "name": "La Ponderosa", "rating": 3.9, "tipo_1": "bar", "tipo_2": "restaurant", "tipo_3": "food", "categoria": "gastronomia", "cluster": 0 }, "geometry": { "type": "Point", "coordinates": [ -58.3890562, -34.6481491 ] } },
{ "type": "Feature", "properties": { "place_id": "651b38fea6b728c5d414970b4e5f8797f6bb4e9b", "name": "Mechita", "rating": 3.4, "tipo_1": "bar", "tipo_2": "restaurant", "tipo_3": "food", "categoria": "gastronomia", "cluster": 0 }, "geometry": { "type": "Point", "coordinates": [ -58.4172759, -34.6478169 ] } },
{ "type": "Feature", "properties": { "place_id": "e8dbc294aaa3ea823bb51e04b062638857e2ed94", "name": "Robusto Cesar A", "rating": 5.0, "tipo_1": "bar", "tipo_2": "point_of_interest", "tipo_3": "establishment", "categoria": "gastronomia", "cluster": 0 }, "geometry": { "type": "Point", "coordinates": [ -58.4171021, -34.6390125 ] } },
{ "type": "Feature", "properties": { "place_id": "46ac0f4b1a9a57be3e38ac7b05f88e59cb602b53", "name": "Lo de Pepe", "rating": null, "tipo_1": "bar", "tipo_2": "point_of_interest", "tipo_3": "establishment", "categoria": "gastronomia", "cluster": 0 }, "geometry": { "type": "Point", "coordinates": [ -58.4253309, -34.6450622 ] } },
{ "type": "Feature", "properties": { "place_id": "07c96b9f717fdab0aba1fcbf91c212a07c07362c", "name": "Casa Franchini", "rating": null, "tipo_1": "bar", "tipo_2": "point_of_interest", "tipo_3": "establishment", "categoria": "gastronomia", "cluster": 0 }, "geometry": { "type": "Point", "coordinates": [ -58.4270716, -34.6418126 ] } },
{ "type": "Feature", "properties": { "place_id": "8177267d3f2e91f3763e70769fc22f667d2bd260", "name": "Bar la via", "rating": null, "tipo_1": "bar", "tipo_2": "point_of_interest", "tipo_3": "establishment", "categoria": "gastronomia", "cluster": 0 }, "geometry": { "type": "Point", "coordinates": [ -58.42515, -34.6383418 ] } },
{ "type": "Feature", "properties": { "place_id": "d2b8c87d921c66ba29d76289787e8d2963d07f0d", "name": "Arizona Bar Café", "rating": 4.3, "tipo_1": "cafe", "tipo_2": "bar", "tipo_3": "food", "categoria": "gastronomia", "cluster": 0 }, "geometry": { "type": "Point", "coordinates": [ -58.3977517, -34.6307444 ] } },
{ "type": "Feature", "properties": { "place_id": "1a4a6aa366b24f2e2bff39dfebc2a89316b787f6", "name": "Z1 Panchos Crvezas", "rating": null, "tipo_1": "bar", "tipo_2": "restaurant", "tipo_3": "food", "categoria": "gastronomia", "cluster": 0 }, "geometry": { "type": "Point", "coordinates": [ -58.3850781, -34.6282089 ] } },
{ "type": "Feature", "properties": { "place_id": "d55f80300323eee2045aca53231d303b4d516f14", "name": "Bar Michi", "rating": 4.0, "tipo_1": "bar", "tipo_2": "point_of_interest", "tipo_3": "establishment", "categoria": "gastronomia", "cluster": 0 }, "geometry": { "type": "Point", "coordinates": [ -58.3837238, -34.6283628 ] } },
{ "type": "Feature", "properties": { "place_id": "b6cea8fc3ed988a0b0c89969eb9e6972dade3c6b", "name": "Manías Confiteria", "rating": 4.6, "tipo_1": "bar", "tipo_2": "restaurant", "tipo_3": "food", "categoria": "gastronomia", "cluster": 0 }, "geometry": { "type": "Point", "coordinates": [ -58.3895907, -34.6341159 ] } },
{ "type": "Feature", "properties": { "place_id": "62064dbfd1fbe1c088c38aeb541598c8183b2c1c", "name": "Almeida Dionisio S", "rating": null, "tipo_1": "bar", "tipo_2": "point_of_interest", "tipo_3": "establishment", "categoria": "gastronomia", "cluster": 0 }, "geometry": { "type": "Point", "coordinates": [ -58.3891512, -34.6337207 ] } },
{ "type": "Feature", "properties": { "place_id": "51e969994c3bcfcd9f506ca92042eea44d2ab4dd", "name": "La barca", "rating": 3.3, "tipo_1": "bar", "tipo_2": "restaurant", "tipo_3": "food", "categoria": "gastronomia", "cluster": 0 }, "geometry": { "type": "Point", "coordinates": [ -58.388917, -34.6336479 ] } },
{ "type": "Feature", "properties": { "place_id": "da393e1ba500fbb3b2b4c411018d8ba8f19cf061", "name": "lavado tapizados", "rating": null, "tipo_1": "bar", "tipo_2": "point_of_interest", "tipo_3": "establishment", "categoria": "gastronomia", "cluster": 0 }, "geometry": { "type": "Point", "coordinates": [ -58.3874501, -34.6332443 ] } },
{ "type": "Feature", "properties": { "place_id": "fa2b65973e239011ec083b612b752ea95076a3e0", "name": "La Armonia Cafe Bar", "rating": 4.0, "tipo_1": "bar", "tipo_2": "point_of_interest", "tipo_3": "establishment", "categoria": "gastronomia", "cluster": 0 }, "geometry": { "type": "Point", "coordinates": [ -58.390488, -34.6314565 ] } },
{ "type": "Feature", "properties": { "place_id": "8b40c02babbb8b089160bcf1de48d3fec9d5194a", "name": "La Armonía", "rating": null, "tipo_1": "bar", "tipo_2": "point_of_interest", "tipo_3": "establishment", "categoria": "gastronomia", "cluster": 0 }, "geometry": { "type": "Point", "coordinates": [ -58.3904248, -34.6314212 ] } },
{ "type": "Feature", "properties": { "place_id": "7fdfc448953936c4199b01a2f713011c43d34624", "name": "Comidas E&E Café", "rating": 4.1, "tipo_1": "bar", "tipo_2": "point_of_interest", "tipo_3": "establishment", "categoria": "gastronomia", "cluster": 0 }, "geometry": { "type": "Point", "coordinates": [ -58.393679, -34.6350506 ] } },
{ "type": "Feature", "properties": { "place_id": "7c84b09ee18b7d281ae3a0b6952be4e667b57ee2", "name": "Vente Paca", "rating": 3.7, "tipo_1": "bar", "tipo_2": "point_of_interest", "tipo_3": "establishment", "categoria": "gastronomia", "cluster": 0 }, "geometry": { "type": "Point", "coordinates": [ -58.3936615, -34.6352287 ] } },
{ "type": "Feature", "properties": { "place_id": "fd74b56fbff1285f3ac51601a71df09f9790e8f8", "name": "Pulpería Flamingo", "rating": 4.5, "tipo_1": "bar", "tipo_2": "restaurant", "tipo_3": "food", "categoria": "gastronomia", "cluster": 0 }, "geometry": { "type": "Point", "coordinates": [ -58.391366, -34.63143 ] } },
{ "type": "Feature", "properties": { "place_id": "98dd0105ac0255a4bb365c2ff9a86aac7b7bc122", "name": "Micro", "rating": null, "tipo_1": "bar", "tipo_2": "point_of_interest", "tipo_3": "establishment", "categoria": "gastronomia", "cluster": 0 }, "geometry": { "type": "Point", "coordinates": [ -58.3954192, -34.6340802 ] } },
{ "type": "Feature", "properties": { "place_id": "7dae074bef567e916bdc6910e47e66487c6fd4f0", "name": "Farolito", "rating": 4.7, "tipo_1": "bar", "tipo_2": "point_of_interest", "tipo_3": "establishment", "categoria": "gastronomia", "cluster": 0 }, "geometry": { "type": "Point", "coordinates": [ -58.3908442, -34.6291253 ] } },
{ "type": "Feature", "properties": { "place_id": "13a9ca2705f02dd8539b33c635c3e7a4a43dc85f", "name": "Bravo Ana M", "rating": 3.0, "tipo_1": "bar", "tipo_2": "point_of_interest", "tipo_3": "establishment", "categoria": "gastronomia", "cluster": 0 }, "geometry": { "type": "Point", "coordinates": [ -58.3958877, -34.6312947 ] } },
{ "type": "Feature", "properties": { "place_id": "1e5d2d5896d353c9f480547d4c09840268e70819", "name": "Quita Penas", "rating": null, "tipo_1": "bar", "tipo_2": "point_of_interest", "tipo_3": "establishment", "categoria": "gastronomia", "cluster": 0 }, "geometry": { "type": "Point", "coordinates": [ -58.3867181, -34.6284485 ] } },
{ "type": "Feature", "properties": { "place_id": "e4ce356e84482a3e02a37420f5f1ae91a9a5e6f9", "name": "El Reencuentro , Cafeteria , Sandwiches", "rating": null, "tipo_1": "bar", "tipo_2": "point_of_interest", "tipo_3": "establishment", "categoria": "gastronomia", "cluster": 0 }, "geometry": { "type": "Point", "coordinates": [ -58.3864497, -34.6284057 ] } },
{ "type": "Feature", "properties": { "place_id": "937b2b50c7d9c60498f4b6f07aa0511e9967f20a", "name": "Don Benjamín Restó Bar Café", "rating": 4.2, "tipo_1": "cafe", "tipo_2": "bar", "tipo_3": "food", "categoria": "gastronomia", "cluster": 0 }, "geometry": { "type": "Point", "coordinates": [ -58.3895998, -34.6273237 ] } },
{ "type": "Feature", "properties": { "place_id": "9b3f9cac4e9732a052ce021496c944082ef6861a", "name": "Parrilla La Alegría", "rating": 4.4, "tipo_1": "bar", "tipo_2": "restaurant", "tipo_3": "food", "categoria": "gastronomia", "cluster": 0 }, "geometry": { "type": "Point", "coordinates": [ -58.4033504, -34.6276949 ] } },
{ "type": "Feature", "properties": { "place_id": "7003ec99e585df2f1b6838364bdcb3e9ffe33200", "name": "Amil Bar", "rating": 3.6, "tipo_1": "bar", "tipo_2": "restaurant", "tipo_3": "food", "categoria": "gastronomia", "cluster": 0 }, "geometry": { "type": "Point", "coordinates": [ -58.4013547, -34.6275942 ] } },
{ "type": "Feature", "properties": { "place_id": "808f2066cb6869ad697d9fe263fcb956d5158564", "name": "Lucas Bar", "rating": 4.0, "tipo_1": "bar", "tipo_2": "point_of_interest", "tipo_3": "establishment", "categoria": "gastronomia", "cluster": 0 }, "geometry": { "type": "Point", "coordinates": [ -58.4101061, -34.6284777 ] } },
{ "type": "Feature", "properties": { "place_id": "2b56347b75127bb80a13c32c900b5d8f35206959", "name": "Bar Parrilla Hipólito", "rating": 4.0, "tipo_1": "bar", "tipo_2": "restaurant", "tipo_3": "food", "categoria": "gastronomia", "cluster": 0 }, "geometry": { "type": "Point", "coordinates": [ -58.398114, -34.6281789 ] } },
{ "type": "Feature", "properties": { "place_id": "a22836c706da2ce160122b67e11b0d46d9332928", "name": "Negocio Ana", "rating": 3.0, "tipo_1": "bar", "tipo_2": "point_of_interest", "tipo_3": "establishment", "categoria": "gastronomia", "cluster": 0 }, "geometry": { "type": "Point", "coordinates": [ -58.3986372, -34.6275303 ] } },
{ "type": "Feature", "properties": { "place_id": "bb33ffd5826e4c63a9404112573b25233ba2b8e9", "name": "El Viejo Rincón", "rating": 4.1, "tipo_1": "bar", "tipo_2": "restaurant", "tipo_3": "food", "categoria": "gastronomia", "cluster": 0 }, "geometry": { "type": "Point", "coordinates": [ -58.4079813, -34.6322678 ] } },
{ "type": "Feature", "properties": { "place_id": "3fd1facc3dd72e6c528ae7d1b8fe1cae3dbdc94e", "name": "Gomez Domingo", "rating": 2.5, "tipo_1": "bar", "tipo_2": "point_of_interest", "tipo_3": "establishment", "categoria": "gastronomia", "cluster": 0 }, "geometry": { "type": "Point", "coordinates": [ -58.404884, -34.6302779 ] } },
{ "type": "Feature", "properties": { "place_id": "a019acfc5e9c8a2db8c76b4acaeaf4bbe90553c0", "name": "Salón Chiclana", "rating": null, "tipo_1": "bar", "tipo_2": "point_of_interest", "tipo_3": "establishment", "categoria": "gastronomia", "cluster": 0 }, "geometry": { "type": "Point", "coordinates": [ -58.4064116, -34.6301775 ] } },
{ "type": "Feature", "properties": { "place_id": "62a0ab01d9e6c084a0ae2b83d84559bd7a050c04", "name": "Hogar S.A.", "rating": null, "tipo_1": "bar", "tipo_2": "point_of_interest", "tipo_3": "establishment", "categoria": "gastronomia", "cluster": 0 }, "geometry": { "type": "Point", "coordinates": [ -58.4095481, -34.6332004 ] } },
{ "type": "Feature", "properties": { "place_id": "61b6995a0ec77196b0409c3909cc474cefff14b4", "name": "Luz de Luna Eventos", "rating": 5.0, "tipo_1": "bar", "tipo_2": "point_of_interest", "tipo_3": "establishment", "categoria": "gastronomia", "cluster": 0 }, "geometry": { "type": "Point", "coordinates": [ -58.4034714, -34.6295287 ] } },
{ "type": "Feature", "properties": { "place_id": "baa986ba134426f38cc918451ab617bced4485ca", "name": "Lo de Anita", "rating": 3.8, "tipo_1": "bar", "tipo_2": "restaurant", "tipo_3": "food", "categoria": "gastronomia", "cluster": 0 }, "geometry": { "type": "Point", "coordinates": [ -58.4097957, -34.6324673 ] } },
{ "type": "Feature", "properties": { "place_id": "b4fd3a11e369384486d8a48e5b563ebb9f73a007", "name": "TREDICI Bar & Eventos", "rating": 4.4, "tipo_1": "bar", "tipo_2": "meal_delivery", "tipo_3": "cafe", "categoria": "gastronomia", "cluster": 0 }, "geometry": { "type": "Point", "coordinates": [ -58.4090159, -34.6296487 ] } },
{ "type": "Feature", "properties": { "place_id": "82acfc1fd18d6ad2b44cb6e5d4436bf46c65d908", "name": "Per-Noi", "rating": 3.8, "tipo_1": "bar", "tipo_2": "restaurant", "tipo_3": "food", "categoria": "gastronomia", "cluster": 0 }, "geometry": { "type": "Point", "coordinates": [ -58.425668, -34.6325113 ] } },
{ "type": "Feature", "properties": { "place_id": "0c5d26cc1f3f0555dc65ed012fda8a6f5e324b91", "name": "La Ambigua", "rating": 4.8, "tipo_1": "bar", "tipo_2": "restaurant", "tipo_3": "food", "categoria": "gastronomia", "cluster": 0 }, "geometry": { "type": "Point", "coordinates": [ -58.4198685, -34.6273152 ] } },